,City,Lat,Lng,Max Temp,Humidity,Cloudiness,Wind Speed,Country,Date
0,Leku,6.8667,38.45,287.32,51,14,2.51,ET,1611964345
1,Butaritari,3.0707,172.7902,300.27,75,95,7.36,KI,1611964345
2,Ucluelet,48.9329,-125.5528,278.71,93,90,6.69,CA,1611964345
3,Atuona,-9.8,-139.0333,299.11,76,5,8.77,PF,1611964318
4,Kaitangata,-46.2817,169.8464,286.48,75,80,3.58,NZ,1611964346
5,Mikuni,36.2171,136.1519,275.15,60,75,4.63,JP,1611964346
6,Kerema,-7.9631,145.7785,301.84,68,96,0.93,PG,1611964346
7,Yellowknife,62.456,-114.3525,247.04,76,20,3.09,CA,1611964087
8,Hermanus,-34.4187,19.2345,290.93,82,77,0.45,ZA,1611964347
9,Barrow,71.2906,-156.7887,249.15,77,90,3.09,US,1611964237
10,Yerofey Pavlovich,53.9667,121.9667,235.58,78,43,0.83,RU,1611964347
11,Chapais,49.7834,-74.8492,256.15,78,90,4.12,CA,1611964347
12,Iqaluit,63.7506,-68.5145,248.15,77,90,13.89,CA,1611964348
13,Talnakh,69.4865,88.3972,237.61,65,1,1.12,RU,1611964348
14,Dikson,73.5069,80.5464,237.25,85,98,3.37,RU,1611964348
15,Rikitea,-23.1203,-134.9692,300.05,66,59,2.77,PF,1611964310
16,Kédougou,12.5579,-12.1743,296.55,18,4,0.9,SN,1611964349
17,São João da Barra,-21.6403,-41.0511,298.91,79,20,10.07,BR,1611964349
18,Arraial do Cabo,-22.9661,-42.0278,298.72,82,59,12.29,BR,1611964349
19,Wewak,-3.5534,143.6268,300.89,79,100,2.14,PG,1611964349
20,Andrushivka,50.0229,29.0202,267.13,97,13,3.85,UA,1611964350
21,Ushuaia,-54.8,-68.3,279.15,75,75,9.77,AR,1611964303
22,Saint-Philippe,-21.3585,55.7679,298.15,65,0,3.09,RE,1611964350
23,Meulaboh,4.1363,96.1285,297.25,85,100,2.32,ID,1611964350
24,Cestas,44.7435,-0.6791,285.15,100,90,2.57,FR,1611964351
25,Busselton,-33.65,115.3333,292.59,72,0,2.68,AU,1611964351
26,Tuktoyaktuk,69.4541,-133.0374,236.15,67,20,1.03,CA,1611964314
27,Albany,42.6001,-73.9662,263.15,57,20,5.66,US,1611964162
28,Ponta Delgada,37.7333,-25.6667,288.15,94,20,2.06,PT,1611964352
29,Prachuap Khiri Khan,12.2167,99.75,295.15,88,98,1.07,TH,1611964352
30,Hobart,-42.8794,147.3294,297.04,53,20,3.6,AU,1611964283
31,Hagersville,42.9668,-80.0497,265.93,73,90,7.2,CA,1611964353
32,Punta Arenas,-53.15,-70.9167,283.15,57,0,9.77,CL,1611964126
33,Monrovia,6.3005,-10.7969,298.15,94,40,3.56,LR,1611964353
34,La Ronge,55.1001,-105.2842,260.15,85,98,2.06,CA,1611964354
35,Jamestown,42.097,-79.2353,267.59,86,90,5.66,US,1611964354
36,Honiara,-9.4333,159.95,301.9,76,97,3.71,SB,1611964354
37,New Norfolk,-42.7826,147.0587,297.59,39,47,2.68,AU,1611964354
38,Guaratinga,-16.5667,-39.5667,299.15,69,20,5.66,BR,1611964355
39,Chokurdakh,70.6333,147.9167,241.12,85,100,3.75,RU,1611964355
40,Gambiran,-6.7988,111.4951,297.01,92,100,4.38,ID,1611964355
41,Kapaa,22.0752,-159.319,298.15,69,75,8.75,US,1611964355
42,Lebu,-37.6167,-73.65,287.44,91,96,1.97,CL,1611964356
43,Ahipara,-35.1667,173.1667,292.69,67,13,3.86,NZ,1611964356
44,Mossamedes,-15.1961,12.1522,296.11,75,55,3.2,AO,1611964356
45,Atar,20.5169,-13.0499,292.96,24,0,4.54,MR,1611964357
46,Vaini,-21.2,-175.2,297.15,100,90,6.17,TO,1611964358
47,Norman Wells,65.282,-126.8329,239.15,75,20,1.03,CA,1611964358
48,Mataura,-46.1927,168.8643,291.33,44,21,1.23,NZ,1611964305
49,Touros,-5.1989,-35.4608,300.15,78,20,5.66,BR,1611964359
50,Bud,39.447,-86.1758,271.48,77,7,2.67,US,1611964359
51,São Filipe,14.8961,-24.4956,297.17,56,88,4.23,CV,1611964359
52,Tuatapere,-46.1333,167.6833,290.13,46,2,1.63,NZ,1611964360
53,Hamilton,39.1834,-84.5333,272.15,59,1,2.06,US,1611964192
54,Hilo,19.7297,-155.09,295.15,83,90,1.54,US,1611964360
55,Bredasdorp,-34.5322,20.0403,291.89,81,61,1.9,ZA,1611964311
56,Puerto Ayora,-0.7393,-90.3518,299.82,89,83,2.24,EC,1611964361
57,High Prairie,55.4334,-116.4858,262.15,62,2,1.54,CA,1611964361
58,Pitimbu,-7.4706,-34.8086,300.15,78,20,3.6,BR,1611964361
59,Road Town,18.4167,-64.6167,298.15,73,20,2.06,VG,1611964362
60,Thompson,55.7435,-97.8558,261.15,79,90,2.57,CA,1611964362
61,Porto-Novo,6.4965,2.6036,302.15,84,40,5.66,BJ,1611964362
62,Madingou,-4.1536,13.55,295.56,95,100,0.77,CG,1611964362
63,Karratha,-20.7377,116.8463,302.4,65,49,1.2,AU,1611964363
64,Jucuarán,13.2539,-88.2478,307.15,26,0,4.63,SV,1611964363
65,Cape Town,-33.9258,18.4232,294.26,83,40,4.12,ZA,1611964118
66,Pisco,-13.7,-76.2167,296.15,73,0,8.23,PE,1611964364
67,San Vicente,-26.6167,-54.1333,294.47,97,54,2.27,AR,1611964364
68,Sri Aman,1.2376,111.4621,297.15,100,100,0.45,MY,1611964364
69,Grootfontein,-19.5667,18.1167,292.15,88,100,1.03,NA,1611964364
70,Ankang,32.68,109.0172,278.81,61,34,0.53,CN,1611964365
71,Saskylakh,71.9167,114.0833,233.86,77,29,0.24,RU,1611964365
72,San Policarpo,12.1791,125.5072,298.86,82,100,10.9,PH,1611964365
73,Narsaq,60.9167,-46.05,280.15,29,75,10.8,GL,1611964365
74,Caibarién,22.5206,-79.4669,293.15,60,75,5.14,CU,1611964366
75,Benalla,-36.55,145.9833,296.15,83,90,2.57,AU,1611964366
76,Mar del Plata,-38.0023,-57.5575,296.15,68,0,3.6,AR,1611964095
77,Bluff,-46.6,168.3333,285.53,69,66,3.19,NZ,1611964367
78,Grand Gaube,-20.0064,57.6608,298.71,84,1,1.34,MU,1611964367
79,Upernavik,72.7868,-56.1549,251.06,83,61,5.05,GL,1611964367
80,Turukhansk,65.8167,87.9833,238.76,77,98,2.2,RU,1611964368
81,Castro,-24.7911,-50.0119,291.68,97,99,1.8,BR,1611964368
82,Port Lincoln,-34.7333,135.8667,290.94,63,76,5.02,AU,1611964368
83,Sitka,57.0531,-135.33,276.15,52,90,4.12,US,1611964368
84,Hambantota,6.1241,81.1185,297.3,82,93,3.85,LK,1611964369
85,Ixtapa,20.7,-105.2,297.15,78,40,5.14,MX,1611964316
86,Dunedin,-45.8742,170.5036,287.04,66,64,3.58,NZ,1611964336
87,Santa Maria,-29.6842,-53.8069,297.48,82,28,1.49,BR,1611964369
88,Avarua,-21.2078,-159.775,303.15,66,71,3.09,CK,1611964100
89,Longyearbyen,78.2186,15.6401,255.15,55,20,11.32,SJ,1611964318
90,Verkhnevilyuysk,63.4453,120.3167,230.01,77,95,0.93,RU,1611964370
91,Rio Grande,-32.035,-52.0986,298.71,92,67,0.5,BR,1611964371
92,East London,-33.0153,27.9116,294.5,68,21,0.37,ZA,1611964371
93,El Dorado,38.7666,-120.5177,277.59,100,90,1.54,US,1611964371
94,Romilly-sur-Seine,48.5108,3.7263,280.37,87,90,3.6,FR,1611964372
95,Laas,46.6166,10.7002,274.82,93,90,1.03,IT,1611964372
96,Awjilah,29.1081,21.2869,285.92,70,0,4.68,LY,1611964372
97,Nikolskoye,59.7035,30.7861,273.71,93,75,4.0,RU,1611964313
98,Ancud,-41.8697,-73.8203,289.26,55,0,4.63,CL,1611964373
99,Broome,42.2506,-75.833,262.59,78,75,4.12,US,1611964373
100,Qaanaaq,77.484,-69.3632,247.22,62,0,2.31,GL,1611964373
101,Bariloche,-41.1456,-71.3082,292.15,34,0,9.77,AR,1611964374
102,Cherskiy,68.75,161.3,236.9,83,24,1.78,RU,1611964374
103,Kyrksæterøra,63.2906,9.0891,275.15,93,75,7.72,NO,1611964374
104,Grindavik,63.8424,-22.4338,275.15,75,75,2.57,IS,1611964375
105,Saint Paul Harbor,57.79,-152.4072,275.15,64,20,5.66,US,1611964375
106,Khatanga,71.9667,102.5,231.44,74,0,1.74,RU,1611964376
107,Bethel,41.3712,-73.414,265.15,45,1,4.12,US,1611964376
108,Muroto-misakicho,33.2833,134.15,273.15,64,20,1.03,JP,1611964376
109,Río Gallegos,-51.6226,-69.2181,283.15,50,40,11.83,AR,1611964376
110,Ballina,-28.8667,153.5667,299.26,69,90,4.12,AU,1611964377
111,Cockburn Town,21.4612,-71.1419,295.15,56,75,7.72,TC,1611964377
112,Shihezi,44.3,86.0333,255.67,92,56,0.2,CN,1611964377
113,Cidreira,-30.1811,-50.2056,297.67,88,62,3.55,BR,1611964377
114,Carnarvon,-24.8667,113.6333,300.15,61,1,2.06,AU,1611964316
115,Labuhan,-6.8844,112.2051,298.66,87,100,7.08,ID,1611964378
116,Wau,7.7029,27.9953,295.93,19,26,3.15,SS,1611964378
117,Vasto,42.1243,14.7059,281.48,89,8,1.34,IT,1611964378
118,San Jerónimo,-11.9472,-75.2829,285.46,67,99,0.93,PE,1611964379
119,Tasiilaq,65.6145,-37.6368,264.15,73,90,12.35,GL,1611964379
120,Port Alfred,-33.5906,26.891,291.48,88,3,0.89,ZA,1611964379
121,Rochegda,62.8,43.25,265.59,97,100,3.6,RU,1611964380
122,Gari,59.4307,62.3497,254.2,92,100,4.55,RU,1611964380
123,Hasaki,35.7333,140.8333,276.15,35,20,5.66,JP,1611964284
124,Hithadhoo,-0.6,73.0833,300.56,76,49,4.85,MV,1611964380
125,Klaksvík,62.2266,-6.589,273.15,74,90,1.54,FO,1611964381
126,Maridi,4.9158,29.4742,297.02,33,59,1.61,SS,1611964381
127,Kapit,2.0167,112.9333,296.62,95,95,0.09,MY,1611964381
128,Provideniya,64.3833,-173.3,252.13,81,74,2.73,RU,1611964382
129,Leningradskiy,69.3833,178.4167,242.51,84,98,4.0,RU,1611964382
130,Fortuna,40.5982,-124.1573,284.82,71,75,2.57,US,1611964382
131,Mount Gambier,-37.8333,140.7667,289.15,88,90,5.14,AU,1611964382
132,Chicama,-7.8447,-79.1469,295.15,78,40,4.63,PE,1611964383
133,Ābdānān,32.9926,47.4198,280.92,90,40,2.01,IR,1611964383
134,Waingapu,-9.6567,120.2641,300.21,80,90,5.52,ID,1611964383
135,Skjervøy,70.0311,20.9714,264.13,91,1,7.28,NO,1611964384
136,Nishihara,26.1842,127.7558,288.15,54,40,3.6,JP,1611964384
137,Vavuniya,8.7514,80.4971,294.89,99,90,1.17,LK,1611964094
138,Esperance,-33.8667,121.9,289.15,82,0,3.6,AU,1611964384
139,Mahébourg,-20.4081,57.7,300.15,78,40,3.09,MU,1611964385
140,Ketchikan,55.3422,-131.6461,275.15,75,90,5.14,US,1611964146
141,San Borja,-14.8167,-66.85,298.15,82,97,2.01,BO,1611964385
142,Geraldton,-28.7667,114.6,303.15,23,0,11.83,AU,1611964386
143,Mount Isa,-20.7333,139.5,307.15,36,77,3.09,AU,1611964386
144,Wuning,29.2589,120.2311,277.44,73,0,0.97,CN,1611964386
145,Atikokan,48.7555,-91.6216,264.19,96,97,2.81,CA,1611964387
146,Linhai,28.85,121.1167,275.93,67,0,0.36,CN,1611964387
147,Otane,-39.8833,176.6333,291.48,57,63,1.34,NZ,1611964388
148,Hong Kong,22.2855,114.1577,288.71,72,0,0.89,HK,1611964371
149,Huilong,31.8111,121.655,278.71,71,0,0.45,CN,1611964388
150,Kizhinga,51.8462,109.9097,246.15,87,100,0.5,RU,1611964388
151,Asău,46.4333,26.4,276.48,60,98,2.11,RO,1611964389
152,Naryan-Mar,67.6713,53.087,249.79,84,100,6.68,RU,1611964389
153,Biak,-0.9131,122.8766,299.59,67,100,1.18,ID,1611964389
154,Seabra,-12.4186,-41.7703,293.93,48,52,1.9,BR,1611964390
155,Ternate,0.8,127.4,300.26,78,62,2.97,ID,1611964390
156,Sterling,39.0062,-77.4286,271.48,43,75,8.23,US,1611964390
157,Souillac,-20.5167,57.5167,300.15,78,40,3.09,MU,1611964390
158,Correntina,-13.3433,-44.6367,297.25,56,46,0.82,BR,1611964391
159,Buala,-8.145,159.5921,302.32,76,100,5.94,SB,1611964391
160,Creel,27.75,-107.6333,284.43,58,30,7.86,MX,1611964391
161,Moyo,3.6609,31.7247,296.3,46,68,1.16,UG,1611964391
162,Bathsheba,13.2167,-59.5167,298.15,78,40,5.14,BB,1611964392
163,Rome,43.2128,-75.4557,259.15,61,1,2.57,US,1611963914
164,Kununurra,-15.7667,128.7333,301.15,89,100,5.66,AU,1611964392
165,La Palma,33.8464,-118.0467,285.37,94,75,3.09,US,1611964125
166,Harper,4.375,-7.7169,298.75,87,78,2.81,LR,1611964393
167,Port-Gentil,-0.7193,8.7815,299.15,89,20,2.57,GA,1611964393
168,Airai,-8.9266,125.4092,290.86,100,100,1.92,TL,1611964393
169,George Town,5.4112,100.3354,298.15,83,20,2.06,MY,1611964225
170,Xining,36.6167,101.7667,262.84,74,100,1.24,CN,1611964394
171,Port Hardy,50.6996,-127.4199,279.15,87,90,8.23,CA,1611964200
172,Corrales,35.2378,-106.6067,287.04,26,1,7.72,US,1611964182
173,Camaná,-16.6228,-72.7111,294.75,75,0,3.09,PE,1611964395
174,Faanui,-16.4833,-151.75,300.11,67,76,1.29,PF,1611964395
175,Kashgar,39.4547,75.9797,268.15,58,0,4.0,CN,1611964396
176,Santa Marta de Tormes,40.9506,-5.6272,283.15,87,90,8.23,ES,1611964396
177,Muriti,-1.9833,32.9167,296.76,72,67,5.14,TZ,1611964396
178,Yilan,24.757,121.753,287.59,99,100,1.55,TW,1611964397
179,Iwanai,42.9744,140.5089,270.95,96,97,7.18,JP,1611964397
180,Tileagd,47.0667,22.2,279.26,93,90,5.66,RO,1611964397
181,Kruisfontein,-34.0033,24.7314,288.15,87,8,0.45,ZA,1611964397
182,Luanda,-8.8368,13.2343,300.15,78,20,2.57,AO,1611963941
183,Saldanha,-33.0117,17.9442,291.04,91,0,4.87,ZA,1611964398
184,Paamiut,61.994,-49.6678,273.55,85,72,3.54,GL,1611964398
185,Petropavlovsk-Kamchatskiy,53.0452,158.6483,265.15,62,74,4.0,RU,1611964399
186,Hofn,64.2539,-15.2082,272.45,87,49,2.46,IS,1611964399
187,Atambua,-9.1061,124.8925,297.72,89,100,4.86,ID,1611964399
188,Wodonga,-36.1167,146.8833,296.48,94,90,4.63,AU,1611964399
189,Laguna,38.421,-121.4238,286.48,71,90,0.71,US,1611964400
190,Port Moresby,-9.4431,147.1797,298.15,88,75,5.14,PG,1611964400
191,Port Elizabeth,-33.918,25.5701,290.15,82,0,2.57,ZA,1611964400
192,Cervo,43.6702,-7.4101,285.93,90,100,1.79,ES,1611964401
193,Kisangani,0.5167,25.2,295.17,90,93,0.55,CD,1611964401
194,Nesoddtangen,59.8655,10.6594,261.48,5,0,1.28,NO,1611964401
195,Anadyr,64.75,177.4833,243.15,76,0,3.0,RU,1611964402
196,Khovd,48.0056,91.6419,261.37,81,100,0.05,MN,1611964402
197,Coyhaique,-45.5752,-72.0662,289.15,41,0,4.63,CL,1611964402
198,Nanaimo,49.1663,-123.936,279.26,87,100,8.23,CA,1611964147
199,Bambous Virieux,-20.3428,57.7575,300.15,78,40,3.09,MU,1611964403
200,Namtsy,62.7161,129.6658,228.15,53,100,1.0,RU,1611964403
201,Pundaguitan,6.3711,126.1689,300.06,76,72,5.39,PH,1611964403
202,Esil,51.9556,66.4042,265.62,92,40,5.87,KZ,1611964404
203,Imeni Poliny Osipenko,52.4201,136.4853,251.45,91,100,4.32,RU,1611964404
204,Udachny,66.4167,112.4,234.53,80,83,1.89,RU,1611964404
205,Bartica,6.4,-58.6167,297.15,94,40,3.09,GY,1611964404
206,Saint George,37.1041,-113.5841,281.15,66,90,5.14,US,1611964240
207,Te Anau,-45.4167,167.7167,287.71,54,26,0.7,NZ,1611964405
208,Yaan,7.3833,8.5667,298.49,17,0,1.97,NG,1611964405
209,Havelock,34.8791,-76.9013,275.15,44,1,3.6,US,1611964406
210,Rincon,32.296,-81.2354,282.15,46,20,3.09,US,1611964406
211,Antanifotsy,-19.65,47.3167,288.51,93,37,2.12,MG,1611964406
212,Cabo San Lucas,22.8909,-109.9124,302.15,53,1,5.14,MX,1611964407
213,Caravelas,-17.7125,-39.2481,298.06,81,0,2.83,BR,1611964407
214,Vila Velha,-20.3297,-40.2925,299.15,78,0,8.23,BR,1611964240
215,Arkul',57.2808,50.044,269.39,98,100,3.15,RU,1611964407
216,Santa Rosa,14.3122,121.1114,298.71,73,40,1.03,PH,1611964382
217,Eyl,7.9803,49.8164,294.31,83,9,4.84,SO,1611964408
218,Shingū,33.7333,135.9833,276.15,56,40,4.63,JP,1611964408
219,Valdemārpils,57.3707,22.5919,273.15,93,40,6.17,LV,1611964409
220,Belmonte,-15.8631,-38.8828,299.15,69,20,5.66,BR,1611964409
221,Nanortalik,60.1432,-45.2371,273.41,90,100,3.77,GL,1611964409
222,Caniço,32.6333,-16.85,289.15,77,40,3.09,PT,1611964409
223,Aripuanã,-9.1667,-60.6333,296.66,95,99,0.44,BR,1611964410
224,Bonthe,7.5264,-12.505,298.67,86,0,2.68,SL,1611964410
225,Puerto Ayacucho,5.6639,-67.6236,301.34,56,41,3.99,VE,1611964410
226,Ponta do Sol,32.6667,-17.1,287.04,75,66,1.79,PT,1611964411
227,Kumul,42.8,93.45,265.53,85,0,0.9,CN,1611964411
228,Katsuura,35.1333,140.3,277.15,41,20,6.17,JP,1611964411
229,Veracruz,19.3333,-96.6667,296.48,83,90,5.14,MX,1611964398
230,Minuri,16.535,121.8574,291.83,90,96,1.66,PH,1611964412
231,Olafsvik,64.8945,-23.7142,273.02,98,100,3.66,IS,1611964412
232,Huarmey,-10.0681,-78.1522,295.24,75,40,4.09,PE,1611964412
233,Kahului,20.8947,-156.47,300.15,54,20,10.8,US,1611964412
234,Husavik,66.0449,-17.3389,271.15,80,90,1.54,IS,1611964413
235,Yangi Marg`ilon,40.4272,71.7189,272.15,55,51,2.06,UZ,1611964413
236,Filingué,14.3521,3.3168,294.83,21,1,4.82,NE,1611964413
237,Nome,64.5011,-165.4064,256.15,66,40,8.23,US,1611964413
238,Quatre Cocos,-20.2078,57.7625,300.15,78,40,3.09,MU,1611964414
239,Namatanai,-3.6667,152.4333,302.43,75,86,6.15,PG,1611964414
240,Salalah,17.0151,54.0924,295.15,64,75,2.06,OM,1611964414
241,Ribeira Grande,38.5167,-28.7,289.04,81,6,8.76,PT,1611964415
242,Mastung,29.7994,66.845,277.18,48,56,1.4,PK,1611964415
243,Porto Belo,-27.1578,-48.5531,300.93,94,75,1.54,BR,1611964415
244,Sisimiut,66.9395,-53.6735,260.35,77,0,4.52,GL,1611964416
245,Vestmannaeyjar,63.4427,-20.2734,275.65,79,98,2.44,IS,1611964416
246,Lucapa,-8.4192,20.7447,291.32,96,87,0.85,AO,1611964416
247,Roskoshnoye,48.5074,39.3004,274.87,92,100,9.8,UA,1611964416
248,Ilulissat,69.2167,-51.1,256.15,55,0,3.6,GL,1611964417
249,Ishinomaki,38.4167,141.3,272.15,55,20,10.29,JP,1611964417
250,Kiunga,-6.1219,141.2906,299.92,90,96,1.5,PG,1611964417
251,Raja,8.4596,25.678,293.74,22,50,2.83,SS,1611964418
252,Rørvik,64.8621,11.2373,269.9,96,98,6.26,NO,1611964418
253,Hamadan,34.7992,48.5146,274.13,90,84,4.65,IR,1611964418
254,Bengkulu,-3.8004,102.2655,297.26,85,100,1.94,ID,1611964419
255,Nadym,65.5333,72.5167,231.5,79,2,2.05,RU,1611964419
256,Obo,5.3998,26.4869,297.21,23,95,3.68,CF,1611964419
257,Bang Saphan,11.2126,99.5117,300.37,100,75,1.54,TH,1611964419
258,Narrabri,-30.3167,149.7833,301.15,34,94,5.14,AU,1611964420
259,Thanh Hoa,19.8,105.7667,289.1,87,15,0.89,VN,1611964420
260,Jalu,29.0331,21.5482,285.64,71,0,4.39,LY,1611964420
261,Challapata,-18.9,-66.7667,283.79,42,12,0.78,BO,1611964421
262,San Patricio,28.017,-97.5169,294.15,60,75,7.72,US,1611964421
263,Ouallam,14.3188,2.0866,295.29,20,0,4.51,NE,1611964421
264,Acaraú,-2.8856,-40.12,299.73,81,91,5.88,BR,1611964314
265,Lakes Entrance,-37.8811,147.981,292.59,85,91,0.89,AU,1611964422
266,Dukat,62.55,155.55,238.66,82,100,1.84,RU,1611964422
267,Bambanglipuro,-7.95,110.2833,298.09,86,100,2.34,ID,1611964422
268,Yuli,9.6989,10.2744,296.33,20,0,4.43,NG,1611964423
269,Lukovetskiy,64.2956,41.9211,265.15,93,90,5.0,RU,1611964423
270,Tongliao,43.6125,122.2653,250.79,85,0,4.1,CN,1611964423
271,Gunjur,13.2019,-16.7339,293.15,68,0,6.12,GM,1611964423
272,Topeka,39.0483,-95.678,282.15,57,1,7.2,US,1611964159
273,Vila Franca do Campo,37.7167,-25.4333,288.15,94,20,2.06,PT,1611964424
274,Dingle,10.9995,122.6711,296.81,90,100,5.24,PH,1611964424
275,Kysyl-Syr,63.8986,122.7617,230.26,77,100,1.19,RU,1611964424
276,Port Macquarie,-31.4333,152.9167,298.15,81,93,0.45,AU,1611964425
277,Marawi,7.9986,124.2928,294.95,80,80,1.1,PH,1611964425
278,Iquitos,-3.7481,-73.2472,302.15,70,40,2.06,PE,1611964425
279,Flin Flon,54.7682,-101.865,263.15,85,90,1.54,CA,1611964426
280,Palmer,42.1584,-72.3287,263.71,48,40,6.17,US,1611964426
281,Lüderitz,-26.6481,15.1594,293.53,42,0,9.29,NA,1611964426
282,Micheweni,-4.9667,39.8333,299.82,82,1,4.9,TZ,1611964427
283,Batagay-Alyta,67.8006,130.4114,237.97,83,100,0.72,RU,1611964427
284,Alpena,45.0617,-83.4327,267.15,63,1,2.57,US,1611964427
285,Praia da Vitória,38.7333,-27.0667,287.04,94,20,5.29,PT,1611964428
286,Muros,42.7762,-9.0603,287.59,82,99,4.47,ES,1611964428
287,Beyneu,45.3167,55.2,274.71,89,99,2.44,KZ,1611964429
288,Illintsi,49.1048,29.2177,267.23,94,34,2.15,UA,1611964429
289,Nuevo Laredo,27.4763,-99.5164,295.15,53,75,6.17,MX,1611964430
290,Nogliki,51.8333,143.1667,255.4,92,100,6.45,RU,1611964431
291,Pangkalanbuun,-2.6833,111.6167,296.42,95,100,1.28,ID,1611964431
292,Kanigoro,-8.13,112.219,296.35,90,100,3.24,ID,1611964432
293,Dambulla,7.86,80.6517,294.5,97,85,1.38,LK,1611964432
294,Shar,49.5886,81.0453,259.14,90,34,3.98,KZ,1611964432
295,Orchard Homes,46.8633,-114.0484,276.15,81,20,0.4,US,1611964269
296,Mbuji-Mayi,-6.15,23.6,294.74,87,86,1.02,CD,1611964433
297,Lensk,60.7253,114.9278,229.82,74,56,1.6,RU,1611964434
298,Juiz de Fora,-21.7642,-43.3503,295.15,64,0,2.57,BR,1611964221
299,Truro,50.2653,-5.0544,283.15,100,90,11.32,GB,1611964167
300,Pacific Grove,36.6177,-121.9166,286.15,62,20,3.09,US,1611964435
301,Azuqueca de Henares,40.5669,-3.2599,283.71,100,75,3.6,ES,1611964436
302,Kushmurun,52.4503,64.6311,265.32,92,79,4.39,KZ,1611964436
303,Constitución,-35.3333,-72.4167,289.51,93,100,2.25,CL,1611964436
304,Strezhevoy,60.7333,77.5889,233.15,74,0,1.0,RU,1611964437
305,Termoli,41.9888,14.9895,281.48,89,7,1.34,IT,1611964437
306,Agüimes,27.9054,-15.4461,294.26,88,20,3.09,ES,1611964440
307,Vidim,56.4088,103.1106,244.74,86,100,2.04,RU,1611964441
308,Pevek,69.7008,170.3133,238.96,85,4,1.25,RU,1611964441
309,Tiksi,71.6872,128.8694,237.48,84,100,1.79,RU,1611964441
310,Paita,-5.0892,-81.1144,297.42,75,10,7.05,PE,1611964441
311,Faya,18.3851,42.4509,288.15,38,0,2.57,SA,1611964442
312,Charters Towers,-20.1,146.2667,300.5,50,54,4.18,AU,1611964442
313,Launceston,-41.45,147.1667,293.71,77,40,7.2,AU,1611964297
314,Idritsa,56.3316,28.8988,269.73,98,99,3.27,RU,1611964443
315,Athabasca,54.7169,-113.2854,257.15,78,0,1.03,CA,1611964443
316,Bereda,43.2686,-7.5406,285.37,97,100,5.81,ES,1611964443
317,Naze,28.3667,129.4833,285.15,54,75,4.12,JP,1611964445
318,Martapura,-3.4167,114.85,297.15,94,40,1.03,ID,1611964445
319,Kieta,-6.2167,155.6333,302.88,72,48,5.71,PG,1611964446
320,Ostrovnoy,68.0531,39.5131,259.76,93,100,8.05,RU,1611964447
321,Aklavik,68.2191,-135.0107,238.15,75,75,1.03,CA,1611964447
322,Lompoc,34.6391,-120.4579,283.15,87,75,2.06,US,1611964448
323,Teguise,29.0605,-13.564,289.15,94,20,0.51,ES,1611964448
324,Władysławowo,54.7909,18.4009,272.59,100,75,1.03,PL,1611964449
325,Flinders,-34.5833,150.8552,295.93,97,96,4.02,AU,1611964451
326,Vao,-22.6667,167.4833,297.51,74,75,9.3,NC,1611964451
327,Vangaindrano,-23.35,47.6,297.28,90,32,2.32,MG,1611964452
328,Copiapó,-27.3667,-70.3333,292.15,72,75,4.12,CL,1611964442
329,Haines Junction,60.7522,-137.5108,255.15,71,100,0.51,CA,1611964452
330,St. George's,12.0564,-61.7485,299.15,78,40,7.72,GD,1611964455
331,Medina del Campo,41.3124,-4.9141,284.26,87,75,7.2,ES,1611964455
332,Srednekolymsk,67.45,153.6833,237.64,83,100,0.85,RU,1611964456
333,Mwinilunga,-11.7358,24.4293,289.51,93,100,0.75,ZM,1611964456
334,Bitam,2.076,11.5007,294.09,96,99,0.83,GA,1611964457
335,Lavrentiya,65.5833,-171.0,246.53,82,0,4.71,RU,1611964457
336,Nässjö,57.6531,14.6968,263.15,92,20,0.51,SE,1611964458
337,Stornoway,58.2093,-6.3865,276.15,75,1,4.63,GB,1611964459
338,Guéret,46.1667,1.8667,281.15,100,90,3.09,FR,1611964459
339,Vostok,46.4856,135.8833,247.71,89,100,0.88,RU,1611964293
340,Okhotsk,59.3833,143.3,248.45,84,0,3.54,RU,1611964460
341,Waipawa,-41.4122,175.5153,289.26,59,75,9.77,NZ,1611964460
342,Rawson,-43.3002,-65.1023,287.29,58,16,5.98,AR,1611964461
343,Lianhe,47.1333,129.2667,250.73,85,100,0.72,CN,1611964461
344,Kavieng,-2.5744,150.7967,301.78,79,94,6.42,PG,1611964463
345,Champerico,14.3,-91.9167,303.15,70,40,6.17,GT,1611964463
346,Rāmgarh,23.6333,85.5167,282.11,52,0,2.36,IN,1611964463
347,Pierre,44.3683,-100.351,270.15,86,90,5.66,US,1611964327
348,Abu Samrah,35.3029,37.1841,279.32,77,41,5.93,SY,1611964464
349,Lazarev,52.225,141.5131,254.57,91,100,7.56,RU,1611964465
350,Kitgum,3.2783,32.8867,296.25,39,68,1.2,UG,1611964466
351,Whitianga,-36.8333,175.7,292.26,49,1,6.1,NZ,1611964467
352,Anito,12.4497,125.2886,297.53,87,100,8.45,PH,1611964467
353,Ola,59.5833,151.2833,246.4,81,14,5.39,RU,1611964468
354,Saint-Joseph,-21.3667,55.6167,298.15,65,0,3.09,RE,1611964468
355,Coquimbo,-29.9533,-71.3436,290.15,88,75,5.14,CL,1611964458
356,Castelnaudary,43.3183,1.9545,283.15,93,75,1.54,FR,1611964470
357,São Miguel do Araguaia,-13.275,-50.1628,296.49,86,97,1.86,BR,1611964470
358,Cradock,-32.1642,25.6192,290.11,78,3,2.28,ZA,1611964471
359,Sahuaripa,29.05,-109.2333,295.71,32,91,3.01,MX,1611964471
360,Codrington,-38.2667,141.9667,289.75,75,100,4.62,AU,1611964472
361,Masingbi,8.7833,-11.95,296.54,79,1,0.19,SL,1611964472
362,Coremas,-7.0144,-37.9458,301.32,55,100,2.93,BR,1611964473
363,Necochea,-38.5473,-58.7368,293.71,72,83,1.34,AR,1611964473
364,Mayo,38.8876,-76.5119,273.15,43,90,3.6,US,1611964474
365,Ashford,51.1459,0.8728,280.37,87,95,2.73,GB,1611964474
366,Luang Prabang,19.8856,102.1347,290.3,84,65,0.02,LA,1611964475
367,Iskateley,67.6803,53.1512,249.69,84,100,6.59,RU,1611964475
368,Isangel,-19.55,169.2667,303.15,66,40,4.12,VU,1611964476
369,Matonga,-2.3833,34.0833,290.48,92,70,1.82,TZ,1611964476
370,Yerbogachën,61.2767,108.0108,230.61,78,53,2.52,RU,1611964477
371,Ataco,3.5915,-75.3818,298.38,69,47,1.27,CO,1611964477
372,Yeppoon,-23.1333,150.7333,301.15,61,90,3.6,AU,1611964478
373,Carballo,43.213,-8.691,287.15,77,40,6.69,ES,1611964478
374,Shimoda,34.6667,138.95,279.26,52,20,2.06,JP,1611964478
375,Taoudenni,22.6783,-3.9836,294.4,23,0,5.52,ML,1611964480
376,Aswān,24.0934,32.907,283.8,47,0,3.61,EG,1611964480
377,Acajutla,13.5928,-89.8275,301.15,34,0,2.57,SV,1611964449
378,Alexandria,31.2156,29.9553,286.15,82,40,2.06,EG,1611964018
379,Grójec,51.8625,20.8676,271.48,10,97,0.61,PL,1611964200
380,Sur,22.5667,59.5289,290.66,53,0,3.48,OM,1611964315
381,Yairipok,24.6667,94.0667,279.78,73,0,0.46,IN,1611964482
382,Korla,41.7597,86.1469,266.96,83,0,1.4,CN,1611964482
383,Torbay,47.6666,-52.7314,270.93,86,90,10.8,CA,1611964317
384,Mahanje,-9.9333,35.3333,291.06,95,100,0.99,TZ,1611964483
385,Zarasai,55.7333,26.25,269.46,97,100,4.81,LT,1611964483
386,Avera,33.194,-82.5271,280.15,53,1,1.54,US,1611964483
387,Rabo de Peixe,37.8,-25.5833,288.15,94,20,2.06,PT,1611964484
388,Port Blair,11.6667,92.75,299.04,82,41,2.93,IN,1611964484
389,Myskhako,44.6714,37.7433,280.15,57,100,9.0,RU,1611964485
390,Maumere,-8.6199,122.2111,300.53,79,100,6.38,ID,1611964485
391,Ichnya,50.8626,32.3942,267.5,97,57,4.67,UA,1611964486
392,Jardim,-21.4803,-56.1381,297.11,87,99,2.82,BR,1611964486
393,Nouadhibou,20.931,-17.0347,294.15,49,0,6.69,MR,1611964486
394,Nísia Floresta,-6.0911,-35.2086,300.15,78,20,6.17,BR,1611964487
395,Phonhong,18.5007,102.4166,289.15,94,40,0.85,LA,1611964487
396,Aleksandrov Gay,50.147,48.5704,267.93,97,46,2.27,RU,1611964488
397,Staryy Nadym,65.6118,72.6842,231.57,79,7,2.0,RU,1611964488
398,Klyuchi,52.2667,79.1667,262.07,94,53,3.11,RU,1611964488
399,Pakxan,18.3778,103.6601,287.07,84,0,1.14,LA,1611964489
400,Tigzirt,36.8886,4.1198,289.05,61,0,3.42,DZ,1611964489
401,Blackwater,-23.5833,148.8833,301.84,47,0,5.24,AU,1611964489
402,Kimbe,-5.5502,150.1429,302.01,76,95,2.54,PG,1611964274
403,Bossier City,32.516,-93.7321,287.04,50,1,4.63,US,1611964490
404,Antalaha,-14.9003,50.2788,297.15,88,84,1.79,MG,1611964491
405,Butterworth,5.3991,100.3638,298.15,83,20,2.06,MY,1611964491
406,Laem Sing,12.4816,102.0738,297.04,92,90,3.18,TH,1611964491
407,Takoradze,4.8845,-1.7554,298.95,84,80,2.34,GH,1611964492
408,Murgab,37.4966,61.9714,280.15,53,90,4.12,TM,1611964492
409,Autazes,-3.5797,-59.1306,297.58,96,88,0.96,BR,1611964493
410,Young,-32.6833,-57.6333,300.37,70,34,1.35,UY,1611964493
411,Lodja,-3.4833,23.4333,294.61,83,89,0.54,CD,1611964493
412,Poum,-20.2333,164.0167,300.42,70,4,4.64,NC,1611964494
413,Ozinki,51.1786,49.6769,266.93,97,71,2.35,RU,1611964494
414,Celestún,20.8667,-90.4,294.77,75,5,7.55,MX,1611964494
415,Salmo,49.1999,-117.2689,275.37,87,94,1.54,CA,1611964495
416,Antigonish,45.6169,-61.9986,271.48,78,100,2.24,CA,1611964495
417,Sinnamary,5.3833,-52.95,298.24,89,99,6.0,GF,1611964496
418,Cairns,-16.9167,145.7667,303.15,78,75,5.66,AU,1611964479
419,Pahrump,36.2083,-115.9839,284.26,48,88,2.5,US,1611964228
420,Chaozhou,23.6651,116.6379,280.15,93,0,1.0,CN,1611964497
421,Kavaratti,10.5669,72.642,299.92,73,14,4.85,IN,1611964497
422,Zyryanka,65.75,150.85,242.34,86,100,4.96,RU,1611964497
423,Samarai,-10.6167,150.6667,302.48,70,86,3.83,PG,1611964498
424,Tailai,46.3833,123.4,249.06,89,85,4.33,CN,1611964498
425,Meadow Lake,34.8014,-106.5436,288.15,28,40,8.23,US,1611964498
426,Changli,39.7042,119.1506,269.11,73,0,2.26,CN,1611964499
427,Leeds,53.7964,-1.5477,277.59,54,99,0.45,GB,1611964057
428,Itoman,26.1247,127.6694,288.15,51,20,3.6,JP,1611964499
429,Yenagoa,4.9247,6.2642,299.18,88,29,1.76,NG,1611964500
430,Moree,-29.4667,149.85,301.15,39,34,6.69,AU,1611964500
431,Siocon,7.7061,122.1353,299.78,75,95,4.85,PH,1611964501
432,Valga,57.7778,26.0473,270.93,95,100,2.68,EE,1611964501
433,Boundiali,9.5217,-6.4869,295.66,20,48,0.86,CI,1611964501
434,The Valley,18.217,-63.0578,298.15,88,20,2.06,AI,1611963930
435,Florianópolis,-27.6146,-48.5012,300.93,94,100,1.03,BR,1611964505
436,Lianyuan,27.6883,111.6642,281.94,80,100,0.87,CN,1611964505
437,Bonavista,48.6499,-53.1147,270.37,100,100,2.06,CA,1611964506
438,Yumen,40.2833,97.2,266.51,74,0,6.89,CN,1611964507
439,Baharly,38.4362,57.4316,285.67,38,96,2.36,TM,1611964470
440,Westport,41.1415,-73.3579,267.04,45,1,5.14,US,1611964342
441,Miraflores,19.2167,-98.8083,296.15,20,75,4.12,MX,1611964509
442,Ambilobe,-13.2,49.05,296.44,93,97,1.06,MG,1611964509
443,Berlevåg,70.8578,29.0864,268.57,95,100,7.56,NO,1611964510
444,Popondetta,-8.7537,148.2534,302.15,81,95,0.89,PG,1611964510
445,Ambulu,-8.345,113.6058,298.43,85,100,1.2,ID,1611964506
446,Hobyo,5.3505,48.5268,297.13,77,30,7.02,SO,1611964511
447,Sanmenxia,34.7747,111.1814,275.06,71,92,1.39,CN,1611964511
448,Kundiawa,-6.0167,144.9667,294.45,69,100,1.17,PG,1611964511
449,Tezu,27.9167,96.1667,287.46,36,22,1.33,IN,1611964273
450,Uusikaupunki,60.8004,21.4084,266.15,86,90,3.6,FI,1611964512
451,Igrim,63.1906,64.4162,241.49,85,75,2.98,RU,1611964512
452,Henties Bay,-22.116,14.2845,292.59,84,27,3.8,NA,1611964513
453,Ambovombe,-25.1667,46.0833,297.81,85,8,2.22,MG,1611964513
454,Kerrobert,51.9168,-109.1348,259.15,85,90,5.14,CA,1611964514
455,Kudahuvadhoo,2.6708,72.8944,300.22,79,58,7.04,MV,1611964514
456,Ginir,7.1333,40.7,285.6,44,0,0.26,ET,1611964515
457,Sirte,31.2089,16.5887,290.68,48,0,6.88,LY,1611964515
458,Namsos,64.4662,11.4957,276.48,80,100,7.6,NO,1611964516
459,Panguna,-6.3164,155.4848,300.47,73,52,2.32,PG,1611964516
460,Padang,-0.9492,100.3543,296.15,100,75,2.06,ID,1611964455
461,Hanting,36.7708,119.2108,273.34,85,0,0.4,CN,1611964517
462,Gouré,13.9835,10.2704,294.26,12,0,3.58,NE,1611964517
463,Lacolle,45.0834,-73.3659,258.15,74,73,1.34,CA,1611964517
464,Bozoum,6.3193,16.3799,294.47,29,78,0.94,CF,1611964518
465,Iwaki,37.05,140.8833,274.26,53,4,3.13,JP,1611964518
466,Pochutla,15.7432,-96.4661,307.15,36,40,3.6,MX,1611964519
467,Strelka,58.0728,93.0344,243.04,85,100,2.35,RU,1611964519
468,Minot,48.2325,-101.2963,267.15,86,90,4.12,US,1611964258
469,Grand Forks,47.9417,-97.4337,269.15,100,90,5.14,US,1611964520
470,Carrick-on-Suir,52.3492,-7.4131,280.37,90,100,3.13,IE,1611964521
471,Tura,25.5198,90.2201,284.89,54,0,0.76,IN,1611964521
472,Ukiah,39.1502,-123.2078,283.15,66,75,1.7,US,1611964521
473,Alap,46.7991,18.6894,278.71,84,85,2.68,HU,1611964522
474,Coihueco,-36.6167,-71.8333,290.15,100,90,6.17,CL,1611964522
475,Bealanana,-14.55,48.7333,291.8,86,92,0.36,MG,1611964522
476,Shubarshi,48.5872,57.1869,266.57,96,100,4.12,KZ,1611964523
477,Kuminskiy,58.6667,66.5667,255.84,93,100,3.71,RU,1611964523
478,Chui,-33.6971,-53.4616,293.92,90,1,1.84,UY,1611964524
479,Richards Bay,-28.783,32.0377,295.33,88,88,0.96,ZA,1611964524
480,Bac Lieu,9.285,105.7244,296.6,78,100,4.94,VN,1611964293
481,Kabanjahe,3.1001,98.4908,297.15,100,40,1.03,ID,1611964525
482,Pathein,16.7833,94.7333,295.21,86,0,2.42,MM,1611964525
483,Deniliquin,-35.5333,144.9667,298.71,57,10,0.45,AU,1611964526
484,Bray,53.2028,-6.0983,279.82,97,100,2.68,IE,1611964526
485,Pangnirtung,66.1451,-65.7125,250.15,77,1,0.82,CA,1611964526
486,Adeje,28.1227,-16.726,292.04,63,0,1.03,ES,1611964527
487,Gorontalo,0.5412,123.0595,300.07,71,95,1.38,ID,1611964420
488,Portland,45.5234,-122.6762,282.15,66,75,3.09,US,1611964288
489,Azare,11.6765,10.1948,291.72,25,0,3.85,NG,1611964528
490,Lethem,3.3803,-59.7968,301.2,57,74,4.36,GY,1611964528
491,Mtinko,-4.55,34.85,288.72,95,100,2.01,TZ,1611964529
492,Haldībāri,26.3333,88.7667,285.08,55,0,2.8,IN,1611964529
493,Pancas,-19.225,-40.8514,295.86,82,12,2.1,BR,1611964530
494,Ulaanbaatar,47.9077,106.8832,251.15,77,40,2.47,MN,1611964341
495,Maltahöhe,-24.8333,16.9833,298.27,20,1,4.55,NA,1611964530
496,Santa Cruz de Barahona,18.2085,-71.1008,297.35,74,3,3.38,DO,1611964532
497,Deputatsky,69.3,139.9,238.51,87,100,0.9,RU,1611964533
498,Venado,22.9333,-101.0833,291.02,38,85,2.12,MX,1611964533
499,Leshukonskoye,64.8989,45.7622,261.41,94,100,3.97,RU,1611964533
500,Vakhrushev,48.9833,142.9667,262.55,90,100,6.05,RU,1611964534
501,Itaqui,-29.1253,-56.5531,295.95,69,92,1.34,BR,1611964534
502,Ürümqi,43.801,87.6005,256.15,85,90,0.75,CN,1611964332
503,Severo-Kuril'sk,50.6789,156.125,267.92,91,99,6.86,RU,1611964535
504,Rudnya,54.947,31.0934,269.38,98,100,5.37,RU,1611964535
505,Distrikt Brokopondo,4.75,-55.1667,297.53,90,100,4.33,SR,1611964535
506,Robāţ Karīm,35.4846,51.0829,282.15,87,75,3.09,IR,1611964343
507,Balkhash,46.844,74.9804,263.57,91,0,4.84,KZ,1611964536
508,Manaia,-39.55,174.1333,293.15,41,9,3.58,NZ,1611964536
509,General Cepeda,25.3833,-101.45,294.15,35,75,3.09,MX,1611964537
510,Leh,34.1667,77.5833,254.49,65,13,1.18,IN,1611964537
511,Umluj,25.0213,37.2685,290.18,51,8,5.71,SA,1611964536
512,Kuching,1.55,110.3333,296.15,100,40,1.54,MY,1611964538
513,Amarillo,35.222,-101.8313,286.48,35,90,8.75,US,1611964538
514,Roald,62.5833,6.1333,275.15,80,75,4.63,NO,1611964538
