,City,Lat,Lng,Max Temp,Humidity,Cloudiness,Wind Speed,Country,Date
0,Caravelas,-17.7125,-39.2481,296.55,86,85,2.04,BR,1611722895
1,Ode,7.7899,5.7117,291.68,78,42,1.24,NG,1611722895
2,Busselton,-33.65,115.3333,295.37,50,0,2.24,AU,1611722895
3,Rikitea,-23.1203,-134.9692,299.93,73,21,3.73,PF,1611722896
4,Grand Gaube,-20.0064,57.6608,301.48,67,43,0.89,MU,1611722896
5,Formosa do Rio Preto,-11.0483,-45.1931,297.45,56,70,1.78,BR,1611722897
6,Coyhaique,-45.5752,-72.0662,281.15,100,90,1.91,CL,1611722893
7,Saint George,37.1041,-113.5841,276.15,81,90,1.54,US,1611722787
8,Ronneby,56.21,15.276,267.15,100,75,1.54,SE,1611722898
9,Marzuq,14.4,46.4667,290.34,28,0,1.35,YE,1611722898
10,Puerto Ayora,-0.7393,-90.3518,298.15,95,49,1.79,EC,1611722899
11,Mumbai,19.0144,72.8479,296.15,56,58,2.18,IN,1611722622
12,Anshun,26.25,105.9333,279.06,84,99,4.17,CN,1611722899
13,Hobart,-42.8794,147.3294,290.37,47,75,5.66,AU,1611722887
14,Atuona,-9.8,-139.0333,299.12,75,1,7.93,PF,1611722900
15,Laas,46.6166,10.7002,269.82,73,48,2.59,IT,1611722901
16,Bambous Virieux,-20.3428,57.7575,301.48,69,20,1.54,MU,1611722902
17,Klamath Falls,42.2249,-121.7817,271.15,69,90,5.66,US,1611722619
18,Qaanaaq,77.484,-69.3632,246.73,63,0,3.17,GL,1611722902
19,Golspie,57.9727,-3.978,274.26,97,100,2.63,GB,1611722902
20,Jamestown,42.097,-79.2353,270.93,93,90,2.88,US,1611722649
21,Albany,42.6001,-73.9662,270.37,79,100,1.54,US,1611722903
22,Kavieng,-2.5744,150.7967,302.34,74,93,4.62,PG,1611722903
23,Lázaro Cárdenas,17.9583,-102.2,295.05,86,82,1.79,MX,1611722904
24,Mar del Plata,-38.0023,-57.5575,292.59,94,75,3.6,AR,1611722904
25,Touros,-5.1989,-35.4608,298.68,82,44,6.01,BR,1611722904
26,Cabo San Lucas,22.8909,-109.9124,288.15,73,100,5.36,MX,1611722905
27,East London,-33.0153,27.9116,292.15,88,20,2.06,ZA,1611722905
28,Ribeira Grande,38.5167,-28.7,289.99,79,40,13.9,PT,1611722906
29,Guerrero Negro,27.9769,-114.0611,286.06,61,64,3.68,MX,1611722906
30,Verkhnevilyuysk,63.4453,120.3167,231.31,79,74,1.67,RU,1611722906
31,Ushuaia,-54.8,-68.3,277.15,75,75,10.29,AR,1611722907
32,Puma,-5.0,34.7333,289.22,92,12,3.68,TZ,1611722907
33,Puerto Ayacucho,5.6639,-67.6236,296.98,78,73,2.09,VE,1611722907
34,Rabo de Peixe,37.8,-25.5833,290.37,94,75,10.8,PT,1611722907
35,Tuktoyaktuk,69.4541,-133.0374,247.15,84,90,7.2,CA,1611722908
36,Farmington,36.7281,-108.2187,269.15,74,40,1.96,US,1611722908
37,Kapaa,22.0752,-159.319,297.15,83,40,7.2,US,1611722909
38,Twin Falls,42.3505,-114.6445,268.15,86,1,4.12,US,1611722909
39,Los Llanos de Aridane,28.6585,-17.9182,291.15,72,75,4.63,ES,1611722909
40,Katangli,51.7102,143.2326,260.73,95,100,5.98,RU,1611722910
41,Horqueta,-23.3428,-57.0597,296.25,97,95,1.7,PY,1611722910
42,Yellowknife,62.456,-114.3525,249.26,77,90,3.09,CA,1611722620
43,Nanortalik,60.1432,-45.2371,263.68,82,0,1.69,GL,1611722911
44,Okakarara,-20.5833,17.4333,293.01,76,100,4.14,NA,1611722912
45,Aranos,-24.1333,19.1167,296.12,57,40,3.28,NA,1611722912
46,Mūlki,13.1,74.8,300.15,65,20,2.57,IN,1611722790
47,Chicama,-7.8447,-79.1469,295.15,73,100,2.24,PE,1611722912
48,Kaitangata,-46.2817,169.8464,294.99,50,100,3.41,NZ,1611722913
49,Sioux Lookout,50.1001,-91.917,246.15,83,40,1.54,CA,1611722913
50,Geraldton,-28.7667,114.6,296.56,61,45,8.15,AU,1611722914
51,Tuatapere,-46.1333,167.6833,287.04,93,93,6.26,NZ,1611722914
52,Kamenka,51.3223,42.7678,274.25,98,100,8.36,RU,1611722915
53,George Town,5.4112,100.3354,304.15,66,20,2.06,MY,1611722915
54,Chokurdakh,70.6333,147.9167,239.42,84,96,3.83,RU,1611722915
55,Khatanga,71.9667,102.5,240.79,81,31,4.06,RU,1611722916
56,Barrow,71.2906,-156.7887,245.15,76,90,3.6,US,1611722916
57,Mezen',65.8522,44.24,266.78,98,100,2.79,RU,1611722916
58,Adeje,28.1227,-16.726,290.15,77,20,5.14,ES,1611722916
59,Taltal,-25.4,-70.4833,292.37,64,0,2.18,CL,1611722917
60,Hermanus,-34.4187,19.2345,290.37,95,80,0.45,ZA,1611722917
61,San Miguel,13.4833,-88.1833,296.4,71,0,1.04,SV,1611722917
62,Poshekhon'ye,58.4993,39.1353,273.16,98,100,4.43,RU,1611722917
63,Hithadhoo,-0.6,73.0833,299.93,80,91,6.79,MV,1611722918
64,Kysyl-Syr,63.8986,122.7617,231.19,78,100,2.29,RU,1611722918
65,Yar-Sale,66.8333,70.8333,235.04,81,0,5.43,RU,1611722918
66,Iqaluit,63.7506,-68.5145,252.59,71,1,5.66,CA,1611722919
67,Lukovetskiy,64.2956,41.9211,272.15,93,90,3.0,RU,1611722919
68,Kalmunai,7.4167,81.8167,299.52,73,95,5.58,LK,1611722919
69,Hasaki,35.7333,140.8333,285.37,87,75,2.57,JP,1611722919
70,Eisenerz,47.5333,14.8833,268.15,80,20,2.06,AT,1611722920
71,Provideniya,64.3833,-173.3,260.15,72,90,10.0,RU,1611722920
72,Castro,-24.7911,-50.0119,290.59,94,91,1.76,BR,1611722920
73,Cidreira,-30.1811,-50.2056,297.31,86,100,1.99,BR,1611722920
74,Port Alfred,-33.5906,26.891,293.15,96,100,0.45,ZA,1611722921
75,City of San Pedro,14.35,121.0167,302.59,78,90,2.57,PH,1611722921
76,Honningsvåg,70.9821,25.9704,270.15,74,75,10.29,NO,1611722921
77,Leningradskiy,69.3833,178.4167,243.29,86,93,1.63,RU,1611722922
78,Oyama,36.3,139.8,289.82,72,75,2.06,JP,1611722885
79,Karakol,42.4907,78.3936,268.14,83,0,0.11,KG,1611722923
80,Saint-Philippe,-21.3585,55.7679,303.15,45,0,2.57,RE,1611722923
81,Cape Town,-33.9258,18.4232,292.59,82,40,6.17,ZA,1611722825
82,Bethel,41.3712,-73.414,271.48,93,90,1.54,US,1611722923
83,Kikwit,-5.041,18.8162,293.79,95,75,0.56,CD,1611722924
84,Hervey Bay,-25.2986,152.8535,304.26,45,40,6.69,AU,1611722924
85,Berbera,10.4396,45.0143,296.48,65,99,2.05,SO,1611722924
86,Nikolskoye,59.7035,30.7861,274.26,93,90,3.0,RU,1611722925
87,Antofagasta,-23.65,-70.4,292.15,77,20,4.12,CL,1611722926
88,Lodja,-3.4833,23.4333,293.56,96,100,0.55,CD,1611722926
89,New Norfolk,-42.7826,147.0587,290.37,35,82,1.34,AU,1611722926
90,Tautira,-17.7333,-149.15,300.15,78,75,1.03,PF,1611722927
91,Dikson,73.5069,80.5464,242.65,86,100,2.87,RU,1611722927
92,Pevek,69.7008,170.3133,239.11,85,29,1.06,RU,1611722927
93,Kutum,14.2,24.6667,284.98,36,10,1.1,SD,1611722928
94,Arraial do Cabo,-22.9661,-42.0278,298.15,78,0,6.17,BR,1611722928
95,Vaini,-21.2,-175.2,297.15,100,90,6.17,TO,1611722928
96,Bluff,-46.6,168.3333,287.04,93,100,6.26,NZ,1611722929
97,Xining,36.6167,101.7667,273.73,52,1,6.12,CN,1611722929
98,Itarema,-2.9248,-39.9167,299.07,84,56,5.23,BR,1611722929
99,Bengkulu,-3.8004,102.2655,298.08,83,100,0.75,ID,1611722930
100,Pervomayskiy,53.2485,40.2871,274.26,87,100,7.9,RU,1611722930
101,Tura,25.5198,90.2201,297.35,37,0,1.07,IN,1611722930
102,Te Anau,-45.4167,167.7167,289.17,92,85,1.44,NZ,1611722930
103,Grajaú,-5.8194,-46.1386,295.82,93,100,1.59,BR,1611722931
104,Saskylakh,71.9167,114.0833,235.06,82,34,0.87,RU,1611722931
105,Ponta do Sol,32.6667,-17.1,290.15,82,75,2.06,PT,1611722931
106,Dudinka,69.4058,86.1778,245.25,88,100,2.82,RU,1611722931
107,Yangi Marg`ilon,40.4272,71.7189,272.15,74,7,1.29,UZ,1611722932
108,Øksfjord,70.2396,22.3479,268.15,85,90,4.21,NO,1611722932
109,Portland,45.5234,-122.6762,277.59,75,90,11.32,US,1611722903
110,Avarua,-21.2078,-159.775,301.15,74,40,9.26,CK,1611722897
111,Punta Arenas,-53.15,-70.9167,279.15,65,90,8.23,CL,1611722933
112,Sitka,57.0531,-135.33,270.15,50,1,3.09,US,1611722933
113,Atambua,-9.1061,124.8925,301.15,67,93,3.5,ID,1611722934
114,Port Elizabeth,-33.918,25.5701,294.26,85,100,1.34,ZA,1611722682
115,Mataura,-46.1927,168.8643,287.04,93,99,6.26,NZ,1611722934
116,Nizhnevartovsk,60.9344,76.5531,245.15,76,0,2.0,RU,1611722935
117,Rio Pardo de Minas,-15.6097,-42.5397,290.61,93,66,3.29,BR,1611722935
118,Padang,-0.9492,100.3543,304.15,66,20,2.57,ID,1611722935
119,Gorin,51.1983,136.6669,252.2,88,100,4.07,RU,1611722935
120,Pochutla,15.7432,-96.4661,297.04,70,0,1.79,MX,1611722936
121,Fortuna,40.5982,-124.1573,278.15,93,75,10.29,US,1611722936
122,Hofn,64.2539,-15.2082,270.57,89,100,10.05,IS,1611722936
123,Esperance,-33.8667,121.9,292.15,72,90,8.23,AU,1611722936
124,Tsabong,-26.0217,22.401,296.72,72,88,3.95,BW,1611722937
125,Lavrentiya,65.5833,-171.0,253.31,88,69,1.95,RU,1611722937
126,Zhigansk,66.7697,123.3711,229.75,76,57,3.88,RU,1611722938
127,Lompoc,34.6391,-120.4579,283.15,66,90,2.57,US,1611722848
128,İzmit,40.7669,29.9169,291.15,42,75,5.14,TR,1611722939
129,Broome,42.2506,-75.833,272.04,93,90,1.39,US,1611722939
130,Ilulissat,69.2167,-51.1,256.05,92,96,1.66,GL,1611722939
131,Marystown,47.1666,-55.1483,272.94,95,89,6.52,CA,1611722940
132,Butaritari,3.0707,172.7902,300.38,77,12,4.94,KI,1611722940
133,Salalah,17.0151,54.0924,296.15,31,0,3.09,OM,1611722941
134,Bathsheba,13.2167,-59.5167,298.15,73,20,7.2,BB,1611722941
135,Carnarvon,-24.8667,113.6333,301.15,42,0,10.8,AU,1611722941
136,Rocha,-34.4833,-54.3333,295.16,87,100,2.65,UY,1611722942
137,Tongliao,43.6125,122.2653,262.04,86,98,2.12,CN,1611722942
138,Srednekolymsk,67.45,153.6833,239.41,84,100,3.47,RU,1611722942
139,Gilgit,35.9221,74.3087,270.68,58,0,1.37,PK,1611722942
140,Karpogory,64.0019,44.4451,269.82,99,96,2.69,RU,1611722943
141,Deputatsky,69.3,139.9,234.11,84,100,0.92,RU,1611722943
142,Saint Paul Harbor,57.79,-152.4072,275.15,51,1,4.12,US,1611722943
143,Saint-Pierre,-21.3393,55.4781,303.15,45,0,2.57,RE,1611722944
144,Juazeiro,-9.4117,-40.4986,295.93,65,24,6.88,BR,1611722944
145,Souillac,-20.5167,57.5167,300.15,69,20,1.54,MU,1611722944
146,Constitución,-35.3333,-72.4167,284.75,78,0,3.4,CL,1611722945
147,Edd,13.9297,41.6925,298.72,31,0,4.06,ER,1611722945
148,Zabul Province,32.25,67.25,275.71,61,0,2.13,AF,1611722946
149,Sibu,2.3,111.8167,301.15,78,40,1.54,MY,1611722946
150,Lamar,33.6668,-95.5836,279.82,75,90,5.14,US,1611722947
151,Salinópolis,-0.6136,-47.3561,299.38,85,100,3.87,BR,1611722947
152,Ostrovnoy,68.0531,39.5131,259.09,93,100,6.24,RU,1611722947
153,Honggang,46.4667,124.8667,261.41,77,0,6.55,CN,1611722668
154,Agrij,47.0667,23.1333,271.15,80,0,4.12,RO,1611722948
155,Half Moon Bay,37.4636,-122.4286,281.15,87,90,15.43,US,1611722948
156,Cherskiy,68.75,161.3,237.27,82,100,1.42,RU,1611722948
157,Svetlaya,46.5389,138.3297,269.29,86,100,9.29,RU,1611722949
158,Buraidah,26.326,43.975,282.15,71,0,4.09,SA,1611722949
159,São Filipe,14.8961,-24.4956,295.79,69,0,1.76,CV,1611722949
160,Oktyabr'skiy,54.4815,53.471,267.58,97,100,5.58,RU,1611722950
161,Palm Valley,30.1775,-81.3876,294.82,91,17,3.26,US,1611722950
162,Kirkwall,58.9848,-2.9587,276.15,81,90,6.69,GB,1611722950
163,Kang,-23.6752,22.7876,295.27,78,100,5.87,BW,1611722950
164,Diego de Almagro,-26.3667,-70.05,287.96,45,0,1.08,CL,1611722893
165,Bredasdorp,-34.5322,20.0403,290.15,88,26,2.06,ZA,1611722951
166,Yerbogachën,61.2767,108.0108,237.2,81,73,0.86,RU,1611722951
167,Cockburn Town,21.4612,-71.1419,297.08,79,10,8.65,TC,1611722737
168,Upernavik,72.7868,-56.1549,254.79,84,71,4.07,GL,1611722952
169,Songea,-10.6833,35.65,292.15,100,40,1.03,TZ,1611722952
170,Arlit,18.7369,7.3853,288.73,24,0,3.13,NE,1611722953
171,Dęblin,51.5591,21.8483,275.37,51,100,5.97,PL,1611722953
172,Cololaca,14.3,-88.8833,294.01,68,3,1.14,HN,1611722954
173,Norman Wells,65.282,-126.8329,246.15,76,90,1.54,CA,1611722954
174,Ancud,-41.8697,-73.8203,285.37,87,0,2.06,CL,1611722954
175,Severo-Kuril'sk,50.6789,156.125,269.82,95,81,9.28,RU,1611722954
176,Warwick,41.7001,-71.4162,273.15,100,90,2.57,US,1611722955
177,Northam,51.0333,-4.2167,282.04,97,100,3.58,GB,1611722955
178,Kawhia,-38.0651,174.8183,303.71,50,1,2.24,NZ,1611722955
179,Hilo,19.7297,-155.09,297.15,73,40,1.15,US,1611722833
180,Williams Lake,52.1415,-122.1445,269.15,63,90,4.63,CA,1611722729
181,Alyangula,-13.8483,136.4192,305.15,66,40,2.57,AU,1611722956
182,Sal Rei,16.1833,-22.9167,293.15,88,0,6.69,CV,1611722956
183,Lebu,-37.6167,-73.65,286.21,79,41,6.92,CL,1611722956
184,Thompson,55.7435,-97.8558,246.15,76,75,1.49,CA,1611722957
185,Waingapu,-9.6567,120.2641,303.2,70,100,6.41,ID,1611722957
186,Sungai Penuh,-2.0833,101.3833,298.75,56,98,1.69,ID,1611722957
187,Mossamedes,-15.1961,12.1522,296.33,79,57,2.74,AO,1611722957
188,Aklavik,68.2191,-135.0107,250.15,77,99,2.57,CA,1611722958
189,Krasnyy Luch,48.1395,38.9371,275.1,86,100,5.43,UA,1611722958
190,Atar,20.5169,-13.0499,291.32,23,0,3.65,MR,1611722958
191,Acarí,-15.4311,-74.6158,295.45,67,39,1.55,PE,1611722958
192,Šibenik,43.7272,15.9058,276.15,44,0,2.57,HR,1611722959
193,Esim,4.8699,-2.2405,298.4,88,87,2.18,GH,1611722959
194,Lorengau,-2.0226,147.2712,302.74,70,81,4.74,PG,1611722959
195,Isangel,-19.55,169.2667,303.15,70,75,6.69,VU,1611722960
196,Oranjestad,12.524,-70.027,298.15,83,40,6.17,AW,1611722748
197,Athabasca,54.7169,-113.2854,255.15,71,100,2.57,CA,1611722960
198,Buala,-8.145,159.5921,301.96,77,98,5.44,SB,1611722960
199,Codrington,-38.2667,141.9667,290.82,61,32,8.93,AU,1611722961
200,Ulaanbaatar,47.9077,106.8832,249.15,70,75,1.0,MN,1611722961
201,Port-Gentil,-0.7193,8.7815,300.42,80,100,4.53,GA,1611722961
202,Belance,16.1833,121.25,297.17,76,89,1.89,PH,1611722962
203,Longyearbyen,78.2186,15.6401,259.15,56,0,7.72,SJ,1611722962
204,North Bend,43.4065,-124.2243,277.15,93,90,2.79,US,1611722962
205,Peruíbe,-24.32,-46.9983,297.62,79,92,1.61,BR,1611722962
206,San Borja,-14.8167,-66.85,295.92,94,93,1.41,BO,1611722963
207,Avera,33.194,-82.5271,290.15,75,90,2.34,US,1611722963
208,Abu Samrah,35.3029,37.1841,281.03,55,100,3.05,SY,1611722963
209,Shellbrook,53.2168,-106.4011,246.15,76,40,4.12,CA,1611722963
210,Balkhash,46.844,74.9804,257.15,85,36,3.0,KZ,1611722964
211,Olinda,-8.0089,-34.8553,295.15,94,75,5.14,BR,1611722964
212,Santa Fe,-31.6333,-60.7,297.59,78,63,0.89,AR,1611722964
213,Huarmey,-10.0681,-78.1522,294.94,80,100,3.98,PE,1611722964
214,Naivasha,-0.7167,36.4359,284.82,48,0,1.28,KE,1611722965
215,Inhuma,-6.6683,-41.7078,295.95,77,100,1.23,BR,1611722965
216,Tessalit,20.1986,1.0114,289.29,28,0,4.79,ML,1611722965
217,Erenhot,43.6475,111.9767,260.24,88,100,5.04,CN,1611722965
218,Melilla,35.2937,-2.9383,291.15,72,75,2.57,ES,1611722966
219,Erzin,36.9559,36.2,285.37,45,100,1.79,TR,1611722966
220,Ust'-Omchug,61.15,149.6333,242.0,81,82,2.07,RU,1611722966
221,Husavik,66.0449,-17.3389,262.15,85,40,1.86,IS,1611722967
222,Christchurch,-43.5333,172.6333,303.15,23,30,7.2,NZ,1611722967
223,Sūsangerd,31.5608,48.1831,282.15,61,0,1.03,IR,1611722967
224,Faya,18.3851,42.4509,284.15,62,0,0.62,SA,1611722968
225,San Cristobal,7.7669,-72.225,290.74,80,80,0.94,VE,1611722968
226,Whitehorse,60.7161,-135.0538,253.15,84,75,3.6,CA,1611722712
227,Tasiilaq,65.6145,-37.6368,262.18,93,100,6.33,GL,1611722969
228,Santa Cruz,30.4202,-9.5982,285.15,100,0,4.12,MA,1611722969
229,Hambantota,6.1241,81.1185,301.15,69,20,4.63,LK,1611722969
230,Omboué,-1.5746,9.2618,298.56,89,100,2.13,GA,1611722970
231,Vao,-22.6667,167.4833,298.06,80,55,10.04,NC,1611722970
232,Araouane,18.9048,-3.5265,290.3,24,0,4.74,ML,1611722970
233,Jingdezhen,29.2947,117.2079,284.66,68,76,1.05,CN,1611722971
234,Kashgar,39.4547,75.9797,270.15,54,0,1.0,CN,1611722971
235,Chui,-33.6971,-53.4616,295.62,91,100,3.7,UY,1611722972
236,Miami,25.7743,-80.1937,295.15,88,1,1.54,US,1611722638
237,Dingle,10.9995,122.6711,301.34,78,99,5.57,PH,1611722973
238,Shimoda,34.6667,138.95,286.15,88,75,5.14,JP,1611722973
239,Nokaneng,-19.6667,22.2667,294.75,86,100,1.43,BW,1611722974
240,Acapulco de Juárez,16.8634,-99.8901,296.95,79,15,1.91,MX,1611722974
241,Bhawana,31.5692,72.649,290.38,26,0,1.23,PK,1611722974
242,Romny,50.751,33.4747,271.9,96,100,1.33,UA,1611722974
243,Moree,-29.4667,149.85,309.15,24,75,2.06,AU,1611722975
244,Predivinsk,57.0669,93.4378,246.44,83,95,2.62,RU,1611722975
245,Litovko,49.2361,135.1742,257.07,91,100,2.72,RU,1611722975
246,Meulaboh,4.1363,96.1285,302.23,65,97,1.58,ID,1611722975
247,Novobirilyussy,56.9514,90.6661,250.99,90,100,4.53,RU,1611722976
248,Ayagoz,47.9714,80.4392,261.43,91,99,1.47,KZ,1611722977
249,Sri Aman,1.2376,111.4621,301.15,83,40,1.54,MY,1611722978
250,Jaciara,-15.9653,-54.9683,295.39,89,99,1.1,BR,1611722881
251,Nome,64.5011,-165.4064,261.15,85,75,3.6,US,1611722980
252,Hasilpur,29.7122,72.5553,290.31,25,0,1.91,PK,1611722980
253,Eagle Pass,28.7091,-100.4995,289.26,57,98,4.02,US,1611722980
254,Comodoro Rivadavia,-45.8667,-67.5,287.15,54,0,6.69,AR,1611722774
255,Oranjemund,-28.55,16.4333,290.3,88,93,5.88,NA,1611722981
256,Coahuayana Viejo,18.7333,-103.6833,292.95,81,32,1.16,MX,1611722981
257,Qaqortoq,60.7167,-46.0333,261.66,79,0,3.39,GL,1611722981
258,Ruteng,-8.6136,120.4721,295.45,95,99,2.06,ID,1611722982
259,Slave Lake,55.2834,-114.769,256.15,78,90,5.14,CA,1611722982
260,Okhotsk,59.3833,143.3,250.03,82,92,3.78,RU,1611722982
261,Richards Bay,-28.783,32.0377,297.56,87,100,2.41,ZA,1611722983
262,Hurricane,37.1753,-113.2899,276.15,86,1,1.98,US,1611722962
263,Pacific Grove,36.6177,-121.9166,282.59,71,90,7.2,US,1611722983
264,Brae,60.3964,-1.353,274.15,69,40,2.57,GB,1611722984
265,Honolulu,21.3069,-157.8583,299.15,61,75,6.17,US,1611722875
266,Kenai,60.5544,-151.2583,262.04,85,1,2.98,US,1611722984
267,Chillicothe,39.3331,-82.9824,273.71,100,90,3.09,US,1611722912
268,Koslan,63.4564,48.8989,268.14,98,87,2.41,RU,1611722985
269,Newport,51.5877,-2.9984,282.04,98,100,2.57,GB,1611722985
270,Saint-Augustin,51.226,-58.6502,264.96,93,75,4.58,CA,1611722985
271,Havelock,34.8791,-76.9013,286.48,96,94,0.45,US,1611722986
272,Perth,-31.9333,115.8333,298.15,46,75,7.2,AU,1611722755
273,Çubuk,40.2386,33.0322,280.37,75,75,8.23,TR,1611722986
274,Nānākuli,21.3906,-158.1547,299.15,61,1,4.63,US,1611722987
275,Fernie,49.5,-115.0687,266.15,79,71,1.03,CA,1611722987
276,Saiha,22.4833,92.9667,300.11,17,0,1.44,IN,1611722987
277,Alofi,-19.0595,-169.9187,299.15,89,100,3.09,NU,1611722988
278,Köping,59.514,15.9926,267.04,85,27,0.94,SE,1611722988
279,Airai,-8.9266,125.4092,296.9,69,89,2.36,TL,1611722988
280,Vanimo,-2.6741,141.3028,299.07,89,100,4.92,PG,1611722989
281,San Quintín,30.4833,-115.95,284.0,59,0,2.6,MX,1611722989
282,Belyy Yar,53.6039,91.3903,245.15,76,75,0.77,RU,1611722989
283,Krasnosel'kup,65.7,82.4667,239.49,84,100,4.59,RU,1611722989
284,Kruisfontein,-34.0033,24.7314,294.26,85,100,1.34,ZA,1611722990
285,Faanui,-16.4833,-151.75,300.91,71,62,7.51,PF,1611722990
286,Broken Hill,-31.95,141.4333,301.15,42,90,8.23,AU,1611722990
287,Pokhara,28.2333,83.9833,292.29,27,0,2.41,NP,1611722990
288,Mildura,-34.2,142.15,300.93,25,44,5.14,AU,1611722991
289,Maragogi,-9.0122,-35.2225,298.19,84,55,5.27,BR,1611722991
290,Mount Isa,-20.7333,139.5,310.15,32,31,3.6,AU,1611722991
291,Hanyang,32.1371,105.5126,284.49,41,81,3.46,CN,1611722992
292,Tiarei,-17.5333,-149.3333,300.15,78,75,1.03,PF,1611722992
293,Torbay,47.6666,-52.7314,273.71,100,90,9.77,CA,1611722993
294,Novozaimka,56.4857,66.9241,265.01,97,78,4.96,RU,1611722993
295,Karratha,-20.7377,116.8463,311.47,15,1,4.18,AU,1611722993
296,Warrnambool,-38.3833,142.4833,293.15,65,12,0.89,AU,1611722994
297,Tiksi,71.6872,128.8694,234.44,83,100,1.57,RU,1611722994
298,Porto Santo,33.072,-16.3415,290.15,88,75,5.14,PT,1611722994
299,Villaviciosa,43.4813,-5.4357,290.37,75,99,1.66,ES,1611722995
300,Lüderitz,-26.6481,15.1594,291.22,67,4,11.26,NA,1611722995
301,Gombong,-7.6072,109.5142,304.1,64,87,3.09,ID,1611722995
302,Azul,-36.777,-59.8585,293.31,76,100,5.78,AR,1611722894
303,At-Bashi,41.1702,75.8106,262.67,75,0,0.79,KG,1611722996
304,Pitimbu,-7.4706,-34.8086,297.15,94,20,2.06,BR,1611722996
305,Marawi,7.9986,124.2928,301.48,82,100,1.79,PH,1611722996
306,Morwell,-38.2333,146.4,297.04,47,0,3.13,AU,1611722997
307,Aksarka,66.5606,67.7975,236.45,80,0,2.6,RU,1611722997
308,Soyo,-6.1349,12.3689,299.16,83,100,2.78,AO,1611722997
309,Hualmay,-11.0964,-77.6139,294.43,83,100,4.14,PE,1611722997
310,Maryville,35.7565,-83.9705,285.15,58,90,3.09,US,1611722998
311,Nantucket,41.2835,-70.0995,274.26,100,90,3.6,US,1611722756
312,Belmonte,-15.8631,-38.8828,299.15,69,20,6.17,BR,1611722998
313,Riviere-au-Renard,48.9957,-64.3971,271.15,86,90,1.54,CA,1611722998
314,Gorontalo,0.5412,123.0595,304.76,53,98,2.69,ID,1611722999
315,Kuito,-12.3833,16.9333,287.66,90,100,2.27,AO,1611722999
316,Yenagoa,4.9247,6.2642,298.07,92,88,0.95,NG,1611722999
317,Jeypore,18.85,82.5833,300.47,34,39,1.48,IN,1611722999
318,Pingxiang,27.6167,113.85,286.47,60,90,0.85,CN,1611723000
319,Sarangani,5.4033,125.4636,300.91,77,93,7.88,PH,1611723000
320,Tazovsky,67.4667,78.7,238.12,85,100,2.86,RU,1611723000
321,Makakilo City,21.3469,-158.0858,299.15,61,1,4.63,US,1611723001
322,Rovaniemi,66.5,25.7167,267.15,93,90,5.66,FI,1611723001
323,Carutapera,-1.195,-46.02,298.15,88,98,2.24,BR,1611723001
324,Casablanca,33.5928,-7.6192,286.15,100,0,3.09,MA,1611722476
325,Terney,45.0503,136.6092,266.52,84,0,8.03,RU,1611723002
326,Miles City,46.4083,-105.8406,266.15,73,90,4.63,US,1611723002
327,Abnūb,27.2696,31.1511,279.15,70,0,2.06,EG,1611723003
328,Parrita,9.5201,-84.3225,293.15,68,0,5.14,CR,1611723003
329,Vilyuysk,63.7553,121.6247,230.84,79,82,1.7,RU,1611723003
330,Thunder Bay,48.4001,-89.3168,253.71,77,1,2.06,CA,1611723004
331,Sekoma,-24.4,23.8833,293.89,85,100,6.54,BW,1611723004
332,Kloulklubed,7.0419,134.2556,303.15,62,90,5.14,PW,1611723004
333,Mahon,39.8885,4.2658,286.15,88,90,3.09,ES,1611723004
334,Nazaré da Mata,-7.7417,-35.2278,295.15,94,75,5.14,BR,1611723005
335,Great Yarmouth,52.6083,1.7305,279.15,93,90,4.12,GB,1611723005
336,Embonas,36.2269,27.8564,290.15,82,75,7.72,GR,1611723005
337,Laguna,38.421,-121.4238,280.15,70,90,12.86,US,1611723005
338,Motygino,58.1831,94.7592,239.67,82,88,2.6,RU,1611723006
339,Sambava,-14.2667,50.1667,300.45,70,23,1.59,MG,1611723006
340,Asău,46.4333,26.4,273.15,47,100,2.56,RO,1611723006
341,Hong Kong,22.2855,114.1577,293.71,67,44,0.89,HK,1611722134
342,Lata,40.1629,-8.3327,287.59,96,92,0.74,PT,1611723007
343,Waddān,29.1614,16.139,281.37,68,0,5.14,LY,1611723007
344,Port Blair,11.6667,92.75,301.23,71,48,5.98,IN,1611723008
345,Gouré,13.9835,10.2704,291.36,20,88,5.37,NE,1611723008
346,Iroquois Falls,48.7669,-80.6831,257.15,92,90,2.57,CA,1611723008
347,Staryy Nadym,65.6118,72.6842,235.53,82,43,5.23,RU,1611723008
348,Monrovia,6.3005,-10.7969,297.15,94,40,2.31,LR,1611723009
349,Santa Cruz de Tenerife,28.4682,-16.2546,289.26,100,12,1.54,ES,1611723009
350,Beringovskiy,63.05,179.3167,256.73,94,100,9.68,RU,1611723009
351,Vostok,46.4856,135.8833,258.54,93,100,5.8,RU,1611723009
352,Dayong,25.0209,118.2898,291.15,63,90,2.0,CN,1611723010
353,Havre-St-Pierre,50.2334,-63.5986,268.15,68,90,3.6,CA,1611723010
354,Forsytheganj,52.6333,29.7333,271.82,96,100,6.56,BY,1611723010
355,Port Macquarie,-31.4333,152.9167,302.59,77,53,2.68,AU,1611722824
356,Sinnamary,5.3833,-52.95,298.07,86,98,6.4,GF,1611723011
357,Gladstone,-23.85,151.25,303.15,51,2,7.72,AU,1611723011
358,Sobolevo,54.4299,31.8996,272.07,98,100,8.2,RU,1611723011
359,Beïnamar,8.6698,15.3813,292.1,27,46,1.21,TD,1611723012
360,Salym,60.0625,71.4789,255.67,92,100,2.55,RU,1611723012
361,Merauke,-8.4667,140.3333,302.34,79,86,7.16,ID,1611723012
362,Olafsvik,64.8945,-23.7142,271.17,88,100,9.76,IS,1611723012
363,Turbat,26.0023,63.044,293.0,17,0,5.29,PK,1611723013
364,Katsuura,35.1333,140.3,285.93,79,100,7.45,JP,1611723013
365,Muroto-misakicho,33.2833,134.15,289.15,48,20,10.8,JP,1611723013
366,Whitianga,-36.8333,175.7,297.36,65,4,3.02,NZ,1611723013
367,Ipixuna,-1.7625,-48.8043,298.15,94,75,1.03,BR,1611723014
368,Fredericksburg,38.3032,-77.4605,277.15,93,90,1.54,US,1611723014
369,Ganta,7.3022,-8.5308,293.75,87,25,1.17,LR,1611723014
370,Belaya Gora,68.5333,146.4167,239.6,83,100,1.56,RU,1611723015
371,Goderich,43.7501,-81.7165,270.15,80,93,3.6,CA,1611723015
372,Lundazi,-12.2929,33.1782,292.27,87,97,1.01,ZM,1611723016
373,Kokopo,-4.352,152.2633,303.18,66,98,5.28,PG,1611723016
374,Turukhansk,65.8167,87.9833,242.86,86,100,7.31,RU,1611723016
375,Nabire,-3.3667,135.4833,301.79,66,98,2.6,ID,1611722956
376,Chara,56.9064,118.2631,243.5,81,100,0.9,RU,1611723017
377,Port Hedland,-20.3167,118.5667,312.15,25,27,5.14,AU,1611722738
378,Adrar,20.5022,-10.0711,290.52,22,0,4.21,MR,1611723017
379,Mumbwa,-14.9783,27.0619,290.35,94,99,2.49,ZM,1611723017
380,Saint-Joseph,-21.3667,55.6167,303.15,45,0,2.57,RE,1611723018
381,Paamiut,61.994,-49.6678,263.22,78,0,3.52,GL,1611723018
382,Bilibino,68.0546,166.4372,245.03,82,100,2.76,RU,1611723018
383,Basco,20.4487,121.9702,295.9,71,36,7.09,PH,1611723019
384,Nālūt,30.3333,10.85,278.64,65,0,4.01,LY,1611723019
385,Hearst,49.6835,-83.6665,254.15,78,98,1.54,CA,1611723019
386,Inhambane,-23.865,35.3833,301.15,89,20,3.09,MZ,1611723019
387,Holme,56.1138,10.1725,275.15,93,90,1.54,DK,1611723020
388,Bariloche,-41.1456,-71.3082,281.15,66,40,3.6,AR,1611723020
389,Muros,42.7762,-9.0603,286.48,96,100,0.89,ES,1611723020
390,Kiruna,67.8557,20.2251,263.15,85,90,3.09,SE,1611723020
391,Samfya,-11.3649,29.5565,291.04,93,100,1.53,ZM,1611723021
392,Joshīmath,30.5667,79.5667,285.46,23,0,1.35,IN,1611723021
393,Malakanagiri,18.35,81.9,302.61,43,19,0.99,IN,1611723022
394,Tommot,58.9564,126.2925,237.08,78,100,2.39,RU,1611723022
395,Provost,52.3501,-110.2683,255.15,92,100,4.63,CA,1611723023
396,Kuril'sk,45.2333,147.8833,270.89,96,91,9.72,RU,1611723023
397,San Pedro de Macorís,18.4616,-69.2972,296.48,89,41,0.45,DO,1611723023
398,Nuuk,64.1835,-51.7216,263.13,84,1,4.64,GL,1611723024
399,Bilma,18.6853,12.9164,288.39,24,0,4.36,NE,1611723024
400,Maku,39.2911,44.4521,269.37,79,87,0.56,IR,1611723024
401,Arrondissement de Saint-Dizier,48.4167,5.0833,275.15,80,90,3.6,FR,1611723024
402,Gamba,-2.65,10.0,298.04,91,100,2.64,GA,1611723025
403,Hirara,24.8,125.2833,294.15,68,75,5.14,JP,1611723025
404,Kibre Mengist,5.8833,38.9833,287.15,37,7,1.94,ET,1611723025
405,Lakeway,30.3638,-97.9796,285.93,71,1,6.69,US,1611723025
406,Nemuro,43.3236,145.575,273.15,93,75,5.14,JP,1611723026
407,Lock Haven,41.137,-77.4469,275.37,97,87,3.29,US,1611723026
408,Egvekinot,66.3167,-179.1667,247.46,88,91,6.52,RU,1611723026
409,Chapais,49.7834,-74.8492,264.15,92,90,1.54,CA,1611723027
410,Villarrica,-25.75,-56.4333,296.23,96,100,3.43,PY,1611723027
411,Along,28.1667,94.7667,295.86,35,65,0.35,IN,1611723027
412,Kidal,18.4411,1.4078,289.3,25,0,4.05,ML,1611723027
413,Skjervøy,70.0311,20.9714,268.21,90,35,9.71,NO,1611723028
414,Praia,14.9215,-23.5087,293.15,52,0,4.12,CV,1611723028
415,Dubna,56.7333,37.1667,272.36,98,100,6.64,RU,1611723028
416,Kāmyārān,34.7956,46.9355,271.15,86,0,1.03,IR,1611723028
417,Vanavara,60.34,102.2797,237.39,81,35,1.31,RU,1611723029
418,Samāstipur,25.85,85.7833,290.85,34,0,3.08,IN,1611723029
419,Savinskiy,62.9342,40.1361,272.17,98,99,3.1,RU,1611723029
420,Grand-Santi,4.25,-54.3833,295.39,97,100,0.66,GF,1611723030
421,Evensk,61.95,159.2333,255.83,84,100,4.98,RU,1611723030
422,Banyo,6.75,11.8167,290.54,29,26,1.2,CM,1611723031
423,Trivandrum,8.4833,76.9167,303.15,39,20,1.54,IN,1611723031
424,Ternate,0.8,127.4,302.8,61,73,3.38,ID,1611723031
425,Krasnovishersk,60.4078,57.082,266.55,97,100,2.35,RU,1611723032
426,Asproválta,40.7167,23.7,278.15,63,100,2.24,GR,1611723032
427,Churapcha,62.0025,132.4325,230.19,75,97,2.05,RU,1611723032
428,Paracuru,-3.41,-39.0306,299.82,77,77,7.15,BR,1611723033
429,Kirkuk,35.4681,44.3922,283.02,48,89,2.85,IQ,1611723033
430,Kayerkan,69.3497,87.7602,244.13,85,100,2.42,RU,1611723034
431,Haimen,23.1935,116.6142,294.15,56,4,2.0,CN,1611723018
432,Waipawa,-41.4122,175.5153,295.15,68,0,12.35,NZ,1611723034
433,Kalamare,-22.9337,26.5703,292.77,88,47,3.61,BW,1611723034
434,Lexington,37.9887,-84.4777,275.37,75,90,6.69,US,1611722874
435,Dombarovskiy,50.7587,59.5386,263.96,96,54,2.95,RU,1611723035
436,Baykit,61.67,96.37,234.18,75,75,1.36,RU,1611723035
437,Muskegon,43.3,-86.1334,267.15,73,75,3.6,US,1611722760
438,Veinticinco de Mayo,-35.4323,-60.1727,294.82,64,100,0.45,AR,1611723036
439,Mandalī,33.7499,45.5541,285.26,41,51,0.9,IQ,1611723036
440,Talnakh,69.4865,88.3972,244.7,86,100,1.72,RU,1611723036
441,Kuching,1.55,110.3333,300.15,83,40,1.22,MY,1611723037
442,Tiradentes,-21.1103,-44.1781,290.49,93,98,1.96,BR,1611723037
443,Kingaroy,-26.5333,151.8333,304.15,45,40,5.66,AU,1611723038
444,Aasiaat,68.7098,-52.8699,257.38,94,96,2.27,GL,1611723038
445,Verkhoyansk,67.5447,133.385,229.78,73,53,0.74,RU,1611723038
446,Kirakira,-10.4544,161.9205,300.32,81,100,6.39,SB,1611723038
447,Peterhead,57.5058,-1.7981,275.15,100,90,3.6,GB,1611723039
448,Sept-Îles,50.2001,-66.3821,271.15,69,91,1.54,CA,1611723036
449,Rengo,-34.4167,-70.8667,291.15,55,0,2.57,CL,1611723039
450,Uusikaupunki,60.8004,21.4084,272.15,86,90,3.09,FI,1611723039
451,Lysyye Gory,51.5506,44.8414,273.05,98,100,7.01,RU,1611723040
452,São João da Barra,-21.6403,-41.0511,297.9,81,94,7.73,BR,1611722922
453,Campo Grande,-20.4428,-54.6464,297.15,78,40,4.12,BR,1611723040
454,Margate,51.3813,1.3862,280.37,92,100,0.45,GB,1611723040
455,Mount Gambier,-37.8333,140.7667,295.15,43,2,8.75,AU,1611723041
456,Stromness,58.965,-3.296,276.15,81,90,6.69,GB,1611723041
457,Kaabong,3.4836,34.1492,293.15,43,7,4.57,UG,1611723041
458,Jumla,29.2747,82.1838,285.28,21,0,1.65,NP,1611723041
459,Nowy Targ,49.4778,20.0323,272.59,86,20,1.54,PL,1611723042
460,Nadym,65.5333,72.5167,235.48,82,35,5.44,RU,1611723042
461,Sudak,44.85,34.9667,282.86,83,100,2.86,UA,1611723042
462,Narsaq,60.9167,-46.05,261.39,76,0,3.23,GL,1611723043
463,Tungor,53.3808,142.9564,258.18,94,100,4.09,RU,1611723043
464,Solnechnyy,50.7214,136.6319,252.61,86,100,2.81,RU,1611723043
465,Beidao,34.5686,105.8933,279.63,51,93,3.58,CN,1611723044
466,Sparks,39.5349,-119.7527,272.15,47,75,4.63,US,1611722823
467,Yabrūd,33.9674,36.6574,283.15,69,0,1.54,SY,1611723044
468,Champerico,14.3,-91.9167,293.15,95,46,3.56,GT,1611723044
469,Devils Lake,48.1128,-98.8651,247.59,76,1,2.06,US,1611723045
470,Ulan-Ude,51.8261,107.6098,253.15,50,97,3.0,RU,1611723045
471,Pareora,-44.4871,171.2132,301.48,21,100,1.79,NZ,1611723045
472,Vung Tau,10.346,107.0843,300.48,66,87,3.67,VN,1611722973
473,Ogaminana,7.5946,6.2248,294.45,80,51,2.01,NG,1611723046
474,Ekhabi,53.5102,142.9671,257.99,94,100,4.4,RU,1611723046
475,Dickinson,29.4608,-95.0513,292.15,77,90,2.06,US,1611723046
476,Krasnyye Chetai,55.6887,46.1386,274.03,92,100,6.81,RU,1611723046
477,Road Town,18.4167,-64.6167,297.59,81,42,3.13,VG,1611722918
478,Santa Maria,-29.6842,-53.8069,296.47,87,100,3.87,BR,1611722785
479,Viedma,-40.8135,-62.9967,288.21,67,0,2.5,AR,1611723047
480,Nizwá,22.9333,57.5333,292.88,38,3,0.23,OM,1611723048
481,Nueve de Julio,-35.4444,-60.8831,294.82,64,100,0.45,AR,1611723048
482,Moerai,-22.4333,-151.3333,300.46,75,1,6.35,PF,1611723048
483,Dolores,-36.3132,-57.6792,292.25,89,100,2.76,AR,1611723049
484,Samarai,-10.6167,150.6667,302.93,68,77,2.75,PG,1611723049
485,Capâo Bonito,-24.0058,-48.3494,292.07,95,100,0.53,BR,1611723049
486,Paita,-5.0892,-81.1144,297.06,72,95,4.7,PE,1611723049
487,Quatre Cocos,-20.2078,57.7625,302.04,69,20,1.54,MU,1611723050
488,Honiara,-9.4333,159.95,301.42,75,100,3.31,SB,1611723050
489,Pemangkat,1.1667,108.9667,300.44,78,75,3.15,ID,1611723050
490,Vila Velha,-20.3297,-40.2925,297.15,83,40,1.54,BR,1611723050
491,Opuwo,-18.0607,13.84,291.97,75,92,1.07,NA,1611723051
492,Zhezkazgan,47.8043,67.7144,262.02,97,36,3.02,KZ,1611723051
493,Vardø,70.3705,31.1107,269.15,86,75,8.75,NO,1611723051
494,Kumluca,36.3703,30.2869,287.73,76,100,10.86,TR,1611723051
495,Russell,32.3502,-85.1999,290.15,77,90,0.89,US,1611723052
496,Orbetello,42.4408,11.2196,273.71,93,20,3.6,IT,1611723035
497,Bonavista,48.6499,-53.1147,273.15,100,94,3.09,CA,1611723052
498,Havøysund,70.9963,24.6622,270.15,74,75,10.29,NO,1611723052
499,Roald,62.5833,6.1333,272.15,86,18,5.66,NO,1611723053
500,Neftekumsk,44.6667,44.9167,273.92,95,59,3.92,RU,1611723053
501,Lakatoro,-16.0999,167.4164,299.27,87,100,6.63,VU,1611723053
502,Saint Anthony,45.0205,-93.218,262.15,52,90,2.57,US,1611723054
503,Suratgarh,29.3167,73.9,290.26,26,0,1.49,IN,1611723054
504,Valparaíso,-33.0393,-71.6273,285.15,94,20,2.06,CL,1611723054
505,Ishigaki,24.3448,124.1572,294.15,68,40,8.23,JP,1611723055
506,Korla,41.7597,86.1469,271.85,74,0,0.58,CN,1611723055
507,Rio Grande,-32.035,-52.0986,297.04,97,100,2.39,BR,1611723056
508,Santa Cruz de la Sierra,-17.8,-63.1667,296.15,94,75,6.69,BO,1611722919
509,Bakel,14.905,-12.4568,293.51,17,0,4.85,SN,1611723057
510,Cardston,49.2,-113.3019,260.15,85,0,2.06,CA,1611723057
511,Løding,67.3,14.75,269.26,68,0,8.23,NO,1611723057
512,Shebunino,46.4339,141.8603,273.16,98,100,7.04,RU,1611723058
513,Lagoa,39.05,-27.9833,289.41,82,20,12.58,PT,1611723059
514,San Vicente,-26.6167,-54.1333,296.01,77,95,3.35,AR,1611723059
515,College,64.8569,-147.8028,249.26,69,20,0.86,US,1611722799
516,Klaksvík,62.2266,-6.589,274.15,80,46,6.69,FO,1611723060
517,Yelanskiy,56.8419,62.5014,264.07,95,68,3.32,RU,1611723060
518,Mataundh,25.45,80.15,289.95,36,0,1.15,IN,1611723060
519,Berlevåg,70.8578,29.0864,269.15,86,75,7.72,NO,1611723061
520,Marrakesh,31.6315,-8.0083,284.15,76,0,2.57,MA,1611723001
521,Yumen,40.2833,97.2,270.97,72,0,10.56,CN,1611723061
522,Ahraura,25.0167,83.0167,285.15,82,75,2.06,IN,1611723061
523,Eilat,29.5581,34.9482,288.13,37,100,1.08,IL,1611723062
524,Mabaruma,8.2,-59.7833,295.53,94,48,1.99,GY,1611723063
525,Nanchang,28.6833,115.8833,281.62,82,100,2.48,CN,1611723063
526,Idenao,4.2475,9.0047,297.96,81,100,1.26,CM,1611723064
527,Zheleznogorsk,52.331,35.3711,270.91,97,100,4.81,RU,1611723064
528,Hay River,60.8156,-115.7999,251.15,77,100,3.09,CA,1611723065
529,Pespire,13.5922,-87.3617,296.81,64,0,1.79,HN,1611723065
530,South Valley,35.0101,-106.6781,270.37,68,20,3.09,US,1611723066
531,Blythe,33.6103,-114.5964,281.15,61,1,3.09,US,1611723066
532,Matara,5.9485,80.5353,302.14,56,25,0.66,LK,1611723067
533,Fairbanks,64.8378,-147.7164,249.26,69,20,0.83,US,1611723004
534,Mānikganj,23.8553,90.0125,292.15,82,2,2.06,BD,1611723067
535,San Patricio,28.017,-97.5169,292.59,100,90,4.12,US,1611723068
536,Tocopilla,-22.092,-70.1979,293.44,65,0,4.28,CL,1611723068
537,Jiuquan,39.7432,98.5174,269.27,79,39,0.9,CN,1611723068
538,Mikkeli,61.6886,27.2723,273.15,100,90,1.03,FI,1611723069
539,Pierre,44.3683,-100.351,263.15,79,90,4.12,US,1611723069
540,Xixiang,35.1628,112.865,284.1,40,100,3.11,CN,1611723069
541,Dauphin,51.1494,-100.0502,244.15,76,1,2.57,CA,1611723070
542,Aberdeen,57.1437,-2.0981,275.15,100,90,3.6,GB,1611722912
543,Lages,-27.8161,-50.3261,290.66,97,100,1.47,BR,1611723070
544,Mahébourg,-20.4081,57.7,300.15,69,20,1.54,MU,1611723070
545,Zhangjiakou,40.81,114.8794,269.69,79,69,0.88,CN,1611723044
546,Palu,-0.8917,119.8707,304.1,56,100,2.14,ID,1611723071
547,Vila Franca do Campo,37.7167,-25.4333,290.37,94,75,10.8,PT,1611723071
548,Burnie,-41.0667,145.9167,293.15,47,0,5.36,AU,1611723071
549,Ontario,34.0633,-117.6509,282.15,53,40,4.12,US,1611723072
550,Kabompo,-13.5927,24.2008,290.76,98,100,1.45,ZM,1611723072
551,Ulaangom,49.9811,92.0667,249.2,86,85,1.26,MN,1611723072
552,Labuan,5.2767,115.2417,303.15,66,20,3.6,MY,1611723073
553,Kanhangad,12.3081,75.1063,302.17,41,74,0.26,IN,1611723073
554,Pa Sang,18.5262,98.9394,303.71,50,0,1.54,TH,1611723073
555,Krasnyy Klyuch,55.3863,56.6529,266.4,96,100,5.5,RU,1611723074
556,Stryn,61.9045,6.7226,267.04,89,34,1.63,NO,1611723075
557,Sompeta,18.9333,84.6,299.32,61,0,2.19,IN,1611723077
558,Tabou,4.423,-7.3528,298.03,89,71,2.52,CI,1611723077
559,Cody,44.5263,-109.0565,261.15,85,1,1.89,US,1611722988
560,Loukhi,66.0764,33.0381,265.62,97,100,4.23,RU,1611723078
561,Diamond Harbour,22.1917,88.1847,293.71,63,0,4.12,IN,1611723078
562,Pisco,-13.7,-76.2167,293.71,87,92,0.89,PE,1611723079
563,Thale,51.75,11.05,273.71,96,100,2.95,DE,1611723079
564,Nang Rong,14.6377,102.7914,301.15,74,0,2.57,TH,1611723080
565,São Félix do Xingu,-6.6447,-51.995,295.37,97,100,0.73,BR,1611723080
566,Marsh Harbour,26.5412,-77.0636,296.56,87,23,4.68,BS,1611722892
567,Posse,-14.0931,-46.3694,294.31,73,89,3.56,BR,1611722934
568,Mindyak,54.0231,58.7891,266.97,97,100,2.19,RU,1611723081
569,Nichinan,31.6,131.3667,289.15,63,20,4.63,JP,1611723082
570,Kampene,-3.6,26.6667,293.39,95,100,0.84,CD,1611723082
571,Tanout,14.9709,8.8879,289.37,24,44,5.39,NE,1611723082
572,Mnogovershinnyy,53.9353,139.9242,250.77,91,100,2.24,RU,1611723084
573,Kuruman,-27.4524,23.4325,291.48,99,100,11.55,ZA,1611723084
574,Naze,28.3667,129.4833,291.15,72,75,6.69,JP,1611722894
